{"type":"FeatureCollection","features":[{"type":"Feature","geometry":{"type":"Point","coordinates":[9.39789295,54.75848402]},"properties":{"STRECKE_NR":1000,"RICHTUNG":0,"KM_I":117290016,"KM_L":"172,9 + 16","BEZEICHNUNG":"Flensburg Weiche","STELLE_ART":"Bf","KUERZEL":"AFW","GK_R_DGN":3525691.331,"GK_H_DGN":6069974.991}},{"type":"Feature","geometry":{"type":"Point","coordinates":[9.39244801,54.77024153]},"properties":{"STRECKE_NR":1000,"RICHTUNG":0,"KM_I":117440000,"KM_L":"174,4 + 0","BEZEICHNUNG":"Flensburg Friedensweg","STELLE_ART":"Abzw","KUERZEL":"AFR","GK_R_DGN":3525333.479,"GK_H_DGN":6071281.835}},{"type":"Feature","geometry":{"type":"Point","coordinates":[9.39244801,54.77024153]},"properties":{"STRECKE_NR":1000,"RICHTUNG":0,"KM_I":117440000,"KM_L":"174,4 + 0","BEZEICHNUNG":"Flensburg Friedensweg","STELLE_ART":"Abzw","KUERZEL":"AFR","GK_R_DGN":3525333.479,"GK_H_DGN":6071281.835}},{"type":"Feature","geometry":{"type":"Point","coordinates":[9.36288704,54.81523173]},"properties":{"STRECKE_NR":1000,"RICHTUNG":0,"KM_I":117970084,"KM_L":"179,7 + 84","BEZEICHNUNG":"Flensburg Grenze","STELLE_ART":"Gp","KUERZEL":"AXFW","GK_R_DGN":3523405.063,"GK_H_DGN":6076279.823}},{"type":"Feature","geometry":{"type":"Point","coordinates":[9.43598426,54.7739873]},"properties":{"STRECKE_NR":1005,"RICHTUNG":0,"KM_I":100000000,"KM_L":"0,0 + 0","BEZEICHNUNG":"Flensburg","STELLE_ART":"Bf","KUERZEL":"AF","GK_R_DGN":3528132.808,"GK_H_DGN":6071715.352}},{"type":"Feature","geometry":{"type":"Point","coordinates":[9.44493623,54.76332888]},"properties":{"STRECKE_NR":1005,"RICHTUNG":0,"KM_I":100160086,"KM_L":"1,6 + 86","BEZEICHNUNG":"Flensburg S\x81d","STELLE_ART":"Awanst","KUERZEL":"AFS","GK_R_DGN":3528716.414,"GK_H_DGN":6070532.501}},{"type":"Feature","geometry":{"type":"Point","coordinates":[9.39244801,54.77024153]},"properties":{"STRECKE_NR":1005,"RICHTUNG":0,"KM_I":100540095,"KM_L":"5,4 + 95","BEZEICHNUNG":"Flensburg Friedensweg","STELLE_ART":"Abzw","KUERZEL":"AFR","GK_R_DGN":3525333.479,"GK_H_DGN":6071281.835}},{"type":"Feature","geometry":{"type":"Point","coordinates":[9.22635174,54.50248278]},"properties":{"STRECKE_NR":1011,"RICHTUNG":0,"KM_I":101410058,"KM_L":"14,1 + 58","BEZEICHNUNG":"Ohrstedt","STELLE_ART":"Awanst","KUERZEL":"AOR","GK_R_DGN":3514739.787,"GK_H_DGN":6041428.881}},{"type":"Feature","geometry":{"type":"Point","coordinates":[9.05489896,54.47231461]},"properties":{"STRECKE_NR":1011,"RICHTUNG":0,"KM_I":102620091,"KM_L":"26,2 + 91","BEZEICHNUNG":"Husum","STELLE_ART":"Bf","KUERZEL":"AHM","GK_R_DGN":3503635.17,"GK_H_DGN":6038048.565}},{"type":"Feature","geometry":{"type":"Point","coordinates":[9.05485033,54.47222391]},"properties":{"STRECKE_NR":1012,"RICHTUNG":0,"KM_I":104900086,"KM_L":"49,0 + 86","BEZEICHNUNG":"Husum","STELLE_ART":"Bf","KUERZEL":"AHM","GK_R_DGN":3503632.025,"GK_H_DGN":6038038.466}},{"type":"Feature","geometry":{"type":"Point","coordinates":[10.08328685,54.33087847]},"properties":{"STRECKE_NR":1020,"RICHTUNG":0,"KM_I":100560000,"KM_L":"5,6 + 0","BEZEICHNUNG":"Kronshagen","STELLE_ART":"Hp","KUERZEL":"AKRH","GK_R_DGN":3570547.122,"GK_H_DGN":6022844.919}},{"type":"Feature","geometry":{"type":"Point","coordinates":[10.09076172,54.3490387]},"properties":{"STRECKE_NR":1020,"RICHTUNG":0,"KM_I":100770050,"KM_L":"7,7 + 50","BEZEICHNUNG":"Suchsdorf","STELLE_ART":"Bf","KUERZEL":"ASU","GK_R_DGN":3571002.097,"GK_H_DGN":6024873.725}},{"type":"Feature","geometry":{"type":"Point","coordinates":[10.02877396,54.37075068]},"properties":{"STRECKE_NR":1020,"RICHTUNG":0,"KM_I":101370000,"KM_L":"13,7 + 0","BEZEICHNUNG":"Neuwittenbek","STELLE_ART":"Bf","KUERZEL":"ANW","GK_R_DGN":3566936.257,"GK_H_DGN":6027229.796}},{"type":"Feature","geometry":{"type":"Point","coordinates":[9.97864485,54.40987554]},"properties":{"STRECKE_NR":1020,"RICHTUNG":0,"KM_I":101910049,"KM_L":"19,1 + 49","BEZEICHNUNG":"Gettorf","STELLE_ART":"Bf","KUERZEL":"AGF","GK_R_DGN":3563617.979,"GK_H_DGN":6031538.251}},{"type":"Feature","geometry":{"type":"Point","coordinates":[9.83476629,54.46789424]},"properties":{"STRECKE_NR":1020,"RICHTUNG":0,"KM_I":103100097,"KM_L":"31,0 + 97","BEZEICHNUNG":"Eckernf”rde","STELLE_ART":"Bf","KUERZEL":"AEC","GK_R_DGN":3554199.841,"GK_H_DGN":6037876.008}},{"type":"Feature","geometry":{"type":"Point","coordinates":[9.82043249,54.54179484]},"properties":{"STRECKE_NR":1020,"RICHTUNG":0,"KM_I":103970036,"KM_L":"39,7 + 36","BEZEICHNUNG":"Rieseby","STELLE_ART":"Hp","KUERZEL":"ARY","GK_R_DGN":3553174.592,"GK_H_DGN":6046090.961}},{"type":"Feature","geometry":{"type":"Point","coordinates":[9.77121319,54.63670267]},"properties":{"STRECKE_NR":1020,"RICHTUNG":0,"KM_I":105130034,"KM_L":"51,3 + 34","BEZEICHNUNG":"S\x81derbrarup","STELLE_ART":"Bf","KUERZEL":"ASUE","GK_R_DGN":3549873.269,"GK_H_DGN":6056619.297}},{"type":"Feature","geometry":{"type":"Point","coordinates":[9.66929042,54.71683049]},"properties":{"STRECKE_NR":1020,"RICHTUNG":0,"KM_I":106250003,"KM_L":"62,5 + 3","BEZEICHNUNG":"S”rup","STELLE_ART":"Bf","KUERZEL":"ASOE","GK_R_DGN":3543207.206,"GK_H_DGN":6065471.207}},{"type":"Feature","geometry":{"type":"Point","coordinates":[9.57508781,54.76443542]},"properties":{"STRECKE_NR":1020,"RICHTUNG":0,"KM_I":107060039,"KM_L":"70,6 + 39","BEZEICHNUNG":"Husby","STELLE_ART":"Hp","KUERZEL":"AY","GK_R_DGN":3537093.133,"GK_H_DGN":6070716.591}},{"type":"Feature","geometry":{"type":"Point","coordinates":[9.43626842,54.77430041]},"properties":{"STRECKE_NR":1020,"RICHTUNG":0,"KM_I":108060043,"KM_L":"80,6 + 43","BEZEICHNUNG":"Flensburg","STELLE_ART":"Bf","KUERZEL":"AF","GK_R_DGN":3528150.877,"GK_H_DGN":6071750.32}},{"type":"Feature","geometry":{"type":"Point","coordinates":[10.13133244,54.31489643]},"properties":{"STRECKE_NR":1022,"RICHTUNG":0,"KM_I":100000094,"KM_L":"0,0 + 94","BEZEICHNUNG":"Kiel Hbf","STELLE_ART":"Bf","KUERZEL":"AK","GK_R_DGN":3573701.043,"GK_H_DGN":6021115.14}},{"type":"Feature","geometry":{"type":"Point","coordinates":[10.09990379,54.30866143]},"properties":{"STRECKE_NR":1022,"RICHTUNG":0,"KM_I":100290000,"KM_L":"2,9 + 0","BEZEICHNUNG":"Kiel-Hassee Cittipark","STELLE_ART":"Bf","KUERZEL":"AKH","GK_R_DGN":3571666.628,"GK_H_DGN":6020388.812}},{"type":"Feature","geometry":{"type":"Point","coordinates":[10.07022119,54.31007883]},"properties":{"STRECKE_NR":1022,"RICHTUNG":0,"KM_I":100530037,"KM_L":"5,3 + 37","BEZEICHNUNG":"Kiel-Russee","STELLE_ART":"Hp","KUERZEL":"AKRU","GK_R_DGN":3569732.324,"GK_H_DGN":6020516.855}},{"type":"Feature","geometry":{"type":"Point","coordinates":[10.03060365,54.31278646]},"properties":{"STRECKE_NR":1022,"RICHTUNG":0,"KM_I":100790055,"KM_L":"7,9 + 55","BEZEICHNUNG":"Melsdorf","STELLE_ART":"Hp","KUERZEL":"AME","GK_R_DGN":3567149.468,"GK_H_DGN":6020779.828}},{"type":"Feature","geometry":{"type":"Point","coordinates":[9.96410269,54.31504484]},"properties":{"STRECKE_NR":1022,"RICHTUNG":0,"KM_I":101250077,"KM_L":"12,5 + 77","BEZEICHNUNG":"Achterwehr","STELLE_ART":"Hp","KUERZEL":"AACW","GK_R_DGN":3562818.171,"GK_H_DGN":6020970.002}},{"type":"Feature","geometry":{"type":"Point","coordinates":[9.9473365,54.30985996]},"properties":{"STRECKE_NR":1022,"RICHTUNG":0,"KM_I":101380084,"KM_L":"13,8 + 84","BEZEICHNUNG":"Felde-Brandsbek","STELLE_ART":"Bf","KUERZEL":"AFEB","GK_R_DGN":3561734.839,"GK_H_DGN":6020378.112}},{"type":"Feature","geometry":{"type":"Point","coordinates":[9.86704583,54.31506924]},"properties":{"STRECKE_NR":1022,"RICHTUNG":0,"KM_I":101910057,"KM_L":"19,1 + 57","BEZEICHNUNG":"Bredenbek","STELLE_ART":"Hp","KUERZEL":"ABRB","GK_R_DGN":3556502.006,"GK_H_DGN":6020890.729}},{"type":"Feature","geometry":{"type":"Point","coordinates":[9.74728795,54.2987599]},"properties":{"STRECKE_NR":1022,"RICHTUNG":0,"KM_I":102730078,"KM_L":"27,3 + 78","BEZEICHNUNG":"Sch\x81lldorf","STELLE_ART":"Hp","KUERZEL":"ASC","GK_R_DGN":3548727.734,"GK_H_DGN":6018986.199}},{"type":"Feature","geometry":{"type":"Point","coordinates":[9.72444814,54.28148753]},"properties":{"STRECKE_NR":1022,"RICHTUNG":0,"KM_I":103050088,"KM_L":"30,5 + 88","BEZEICHNUNG":"Osterr”nfeld Awanst","STELLE_ART":"Awanst","KUERZEL":"AONA","GK_R_DGN":3547260.528,"GK_H_DGN":6017048.155}},{"type":"Feature","geometry":{"type":"Point","coordinates":[9.71982705,54.2833738]},"properties":{"STRECKE_NR":1022,"RICHTUNG":0,"KM_I":103090055,"KM_L":"30,9 + 55","BEZEICHNUNG":"Osterr”nfeld","STELLE_ART":"Bf Abzw","KUERZEL":"AON","GK_R_DGN":3546957.412,"GK_H_DGN":6017255.029}},{"type":"Feature","geometry":{"type":"Point","coordinates":[10.1319085,54.31488647]},"properties":{"STRECKE_NR":1023,"RICHTUNG":0,"KM_I":100000047,"KM_L":"0,0 + 47","BEZEICHNUNG":"Kiel Hbf","STELLE_ART":"Bf","KUERZEL":"AK","GK_R_DGN":3573738.548,"GK_H_DGN":6021114.633}},{"type":"Feature","geometry":{"type":"Point","coordinates":[10.14414528,54.29586389]},"properties":{"STRECKE_NR":1023,"RICHTUNG":0,"KM_I":100250037,"KM_L":"2,5 + 37","BEZEICHNUNG":"Kiel Hbf (Ss)","STELLE_ART":"Abzw","KUERZEL":"AKSS","GK_R_DGN":3574569.204,"GK_H_DGN":6019010.213}},{"type":"Feature","geometry":{"type":"Point","coordinates":[10.14532014,54.29550203]},"properties":{"STRECKE_NR":1023,"RICHTUNG":0,"KM_I":100260021,"KM_L":"2,6 + 21","BEZEICHNUNG":"Kiel-Wellsee","STELLE_ART":"Awanst","KUERZEL":"AKEW","GK_R_DGN":3574646.348,"GK_H_DGN":6018971.178}},{"type":"Feature","geometry":{"type":"Point","coordinates":[10.17993938,54.28720888]},"properties":{"STRECKE_NR":1023,"RICHTUNG":0,"KM_I":100510086,"KM_L":"5,1 + 86","BEZEICHNUNG":"Kiel-Elmschenhagen","STELLE_ART":"Bf","KUERZEL":"AKE","GK_R_DGN":3576915.7,"GK_H_DGN":6018085.276}},{"type":"Feature","geometry":{"type":"Point","coordinates":[10.22306962,54.28397263]},"properties":{"STRECKE_NR":1023,"RICHTUNG":0,"KM_I":100800056,"KM_L":"8,0 + 56","BEZEICHNUNG":"Raisdorf West","STELLE_ART":"Awanst","KUERZEL":"ARSW","GK_R_DGN":3579730.526,"GK_H_DGN":6017772.906}},{"type":"Feature","geometry":{"type":"Point","coordinates":[10.24350727,54.28107051]},"properties":{"STRECKE_NR":1023,"RICHTUNG":0,"KM_I":100950017,"KM_L":"9,5 + 17","BEZEICHNUNG":"Raisdorf","STELLE_ART":"Bf","KUERZEL":"ARS","GK_R_DGN":3581067.19,"GK_H_DGN":6017473.161}},{"type":"Feature","geometry":{"type":"Point","coordinates":[10.27566527,54.23415938]},"properties":{"STRECKE_NR":1023,"RICHTUNG":0,"KM_I":101530076,"KM_L":"15,3 + 76","BEZEICHNUNG":"Preetz","STELLE_ART":"Bf","KUERZEL":"APZ","GK_R_DGN":3583255.942,"GK_H_DGN":6012289.321}},{"type":"Feature","geometry":{"type":"Point","coordinates":[10.33983064,54.14859774]},"properties":{"STRECKE_NR":1023,"RICHTUNG":0,"KM_I":102660098,"KM_L":"26,6 + 98","BEZEICHNUNG":"Ascheberg (Holst)","STELLE_ART":"Bf","KUERZEL":"AAG","GK_R_DGN":3587620.249,"GK_H_DGN":6002843.949}},{"type":"Feature","geometry":{"type":"Point","coordinates":[10.42248758,54.15947367]},"properties":{"STRECKE_NR":1023,"RICHTUNG":0,"KM_I":103300056,"KM_L":"33,0 + 56","BEZEICHNUNG":"Pl”n","STELLE_ART":"Bf","KUERZEL":"APLN","GK_R_DGN":3592996.331,"GK_H_DGN":6004159.942}},{"type":"Feature","geometry":{"type":"Point","coordinates":[10.55061923,54.1673798]},"properties":{"STRECKE_NR":1023,"RICHTUNG":0,"KM_I":104240005,"KM_L":"42,4 + 5","BEZEICHNUNG":"Bad Malente-Gremsm\x81hlen","STELLE_ART":"Hp šst","KUERZEL":"AMAG","GK_R_DGN":3601346.273,"GK_H_DGN":6005215.922}},{"type":"Feature","geometry":{"type":"Point","coordinates":[10.60969035,54.13560109]},"properties":{"STRECKE_NR":1023,"RICHTUNG":0,"KM_I":104770044,"KM_L":"47,7 + 44","BEZEICHNUNG":"Eutin","STELLE_ART":"Bf","KUERZEL":"AEU","GK_R_DGN":3605284.432,"GK_H_DGN":6001765.437}},{"type":"Feature","geometry":{"type":"Point","coordinates":[10.79477921,54.09565558]},"properties":{"STRECKE_NR":1023,"RICHTUNG":0,"KM_I":106200020,"KM_L":"62,0 + 20","BEZEICHNUNG":"Neustadt (Holst) Gbf","STELLE_ART":"Bf","KUERZEL":"ANN","GK_R_DGN":3617493.42,"GK_H_DGN":5997611.251}},{"type":"Feature","geometry":{"type":"Point","coordinates":[10.80788866,54.10384262]},"properties":{"STRECKE_NR":1023,"RICHTUNG":0,"KM_I":106320099,"KM_L":"63,2 + 99","BEZEICHNUNG":"Neustadt (Holst)","STELLE_ART":"Hp Awanst","KUERZEL":"ANT","GK_R_DGN":3618327.677,"GK_H_DGN":5998544.224}},{"type":"Feature","geometry":{"type":"Point","coordinates":[10.10816197,54.28528183]},"properties":{"STRECKE_NR":1031,"RICHTUNG":0,"KM_I":110100000,"KM_L":"101,0 + 0","BEZEICHNUNG":"Meimersdorf","STELLE_ART":"Bf Abzw","KUERZEL":"AMR","GK_R_DGN":3572244.992,"GK_H_DGN":6017794.999}},{"type":"Feature","geometry":{"type":"Point","coordinates":[10.13435623,54.29250297]},"properties":{"STRECKE_NR":1032,"RICHTUNG":0,"KM_I":110290076,"KM_L":"102,9 + 76","BEZEICHNUNG":"Meimersdorf Ost","STELLE_ART":"Bft Abzw","KUERZEL":"AMRO","GK_R_DGN":3573937.899,"GK_H_DGN":6018625.84}},{"type":"Feature","geometry":{"type":"Point","coordinates":[10.108218,54.2852035]},"properties":{"STRECKE_NR":1033,"RICHTUNG":0,"KM_I":110100000,"KM_L":"101,0 + 0","BEZEICHNUNG":"Meimersdorf","STELLE_ART":"Bf Abzw","KUERZEL":"AMR","GK_R_DGN":3572248.778,"GK_H_DGN":6017786.338}},{"type":"Feature","geometry":{"type":"Point","coordinates":[10.13435623,54.29250297]},"properties":{"STRECKE_NR":1033,"RICHTUNG":0,"KM_I":110290076,"KM_L":"102,9 + 76","BEZEICHNUNG":"Meimersdorf Ost","STELLE_ART":"Bft Abzw","KUERZEL":"AMRO","GK_R_DGN":3573937.899,"GK_H_DGN":6018625.84}},{"type":"Feature","geometry":{"type":"Point","coordinates":[10.14414528,54.29586389]},"properties":{"STRECKE_NR":1033,"RICHTUNG":0,"KM_I":110380049,"KM_L":"103,8 + 49","BEZEICHNUNG":"Kiel Hbf (Ss)","STELLE_ART":"Abzw","KUERZEL":"AKSS","GK_R_DGN":3574569.204,"GK_H_DGN":6019010.213}},{"type":"Feature","geometry":{"type":"Point","coordinates":[9.97982545,54.07636748]},"properties":{"STRECKE_NR":1040,"RICHTUNG":0,"KM_I":107460088,"KM_L":"74,6 + 88","BEZEICHNUNG":"Neum\x81nster","STELLE_ART":"Bf","KUERZEL":"AN","GK_R_DGN":3564209.84,"GK_H_DGN":5994418.622}},{"type":"Feature","geometry":{"type":"Point","coordinates":[9.85250407,54.16664245]},"properties":{"STRECKE_NR":1040,"RICHTUNG":0,"KM_I":108880066,"KM_L":"88,8 + 66","BEZEICHNUNG":"Nortorf","STELLE_ART":"Bf","KUERZEL":"ANF","GK_R_DGN":3555755.163,"GK_H_DGN":6004358.557}},{"type":"Feature","geometry":{"type":"Point","coordinates":[9.71982705,54.2833738]},"properties":{"STRECKE_NR":1040,"RICHTUNG":0,"KM_I":110500008,"KM_L":"105,0 + 8","BEZEICHNUNG":"Osterr”nfeld","STELLE_ART":"Bf Abzw","KUERZEL":"AON","GK_R_DGN":3546957.412,"GK_H_DGN":6017255.029}},{"type":"Feature","geometry":{"type":"Point","coordinates":[9.69843752,54.28473542]},"properties":{"STRECKE_NR":1040,"RICHTUNG":0,"KM_I":110640088,"KM_L":"106,4 + 88","BEZEICHNUNG":"Rendsburg Hochbr\x81cke","STELLE_ART":"šst","KUERZEL":"ARHB","GK_R_DGN":3545562.862,"GK_H_DGN":6017392.588}},{"type":"Feature","geometry":{"type":"Point","coordinates":[9.67048638,54.30272527]},"properties":{"STRECKE_NR":1040,"RICHTUNG":0,"KM_I":111380069,"KM_L":"113,8 + 69","BEZEICHNUNG":"Rendsburg","STELLE_ART":"Bf","KUERZEL":"AR","GK_R_DGN":3543723.498,"GK_H_DGN":6019377.334}},{"type":"Feature","geometry":{"type":"Point","coordinates":[9.59037718,54.39274159]},"properties":{"STRECKE_NR":1040,"RICHTUNG":0,"KM_I":112540010,"KM_L":"125,4 + 10","BEZEICHNUNG":"Owschlag","STELLE_ART":"Bf","KUERZEL":"AOS","GK_R_DGN":3538424.698,"GK_H_DGN":6029350.353}},{"type":"Feature","geometry":{"type":"Point","coordinates":[9.53734559,54.49989083]},"properties":{"STRECKE_NR":1040,"RICHTUNG":0,"KM_I":113830089,"KM_L":"138,3 + 89","BEZEICHNUNG":"Schleswig","STELLE_ART":"Bf","KUERZEL":"ASW","GK_R_DGN":3534888.993,"GK_H_DGN":6041249.686}},{"type":"Feature","geometry":{"type":"Point","coordinates":[9.47588902,54.52166949]},"properties":{"STRECKE_NR":1040,"RICHTUNG":0,"KM_I":114310020,"KM_L":"143,1 + 20","BEZEICHNUNG":"Schuby","STELLE_ART":"Awanst","KUERZEL":"ASY","GK_R_DGN":3530891.047,"GK_H_DGN":6043645.262}},{"type":"Feature","geometry":{"type":"Point","coordinates":[9.40364319,54.5596885]},"properties":{"STRECKE_NR":1040,"RICHTUNG":0,"KM_I":114940027,"KM_L":"149,4 + 27","BEZEICHNUNG":"J\x81bek","STELLE_ART":"Bf","KUERZEL":"AJ","GK_R_DGN":3526188.688,"GK_H_DGN":6047848.05}},{"type":"Feature","geometry":{"type":"Point","coordinates":[9.39845952,54.66488061]},"properties":{"STRECKE_NR":1040,"RICHTUNG":0,"KM_I":116190074,"KM_L":"161,9 + 74","BEZEICHNUNG":"Tarp","STELLE_ART":"Hp","KUERZEL":"ATP","GK_R_DGN":3525786.955,"GK_H_DGN":6059555.58}},{"type":"Feature","geometry":{"type":"Point","coordinates":[9.39855346,54.75824882]},"properties":{"STRECKE_NR":1040,"RICHTUNG":0,"KM_I":117290016,"KM_L":"172,9 + 16","BEZEICHNUNG":"Flensburg Weiche","STELLE_ART":"Bf","KUERZEL":"AFW","GK_R_DGN":3525734.001,"GK_H_DGN":6069949.051}},{"type":"Feature","geometry":{"type":"Point","coordinates":[9.43598426,54.7739873]},"properties":{"STRECKE_NR":1040,"RICHTUNG":0,"KM_I":117620030,"KM_L":"176,2 + 30","BEZEICHNUNG":"Flensburg","STELLE_ART":"Bf","KUERZEL":"AF","GK_R_DGN":3528132.808,"GK_H_DGN":6071715.352}},{"type":"Feature","geometry":{"type":"Point","coordinates":[9.9796452,54.07639695]},"properties":{"STRECKE_NR":1042,"RICHTUNG":0,"KM_I":100000026,"KM_L":"0,0 + 26","BEZEICHNUNG":"Neum\x81nster","STELLE_ART":"Bf","KUERZEL":"AN","GK_R_DGN":3564197.997,"GK_H_DGN":5994421.738}},{"type":"Feature","geometry":{"type":"Point","coordinates":[9.96275315,54.08344265]},"properties":{"STRECKE_NR":1042,"RICHTUNG":0,"KM_I":100200030,"KM_L":"2,0 + 30","BEZEICHNUNG":"Neum\x81nster Stadtwald","STELLE_ART":"Hp","KUERZEL":"ANSW","GK_R_DGN":3563081.7,"GK_H_DGN":5995190.754}},{"type":"Feature","geometry":{"type":"Point","coordinates":[9.89762987,54.07558283]},"properties":{"STRECKE_NR":1042,"RICHTUNG":0,"KM_I":100630080,"KM_L":"6,3 + 80","BEZEICHNUNG":"Wasbek","STELLE_ART":"Hp","KUERZEL":"AWA","GK_R_DGN":3558831.035,"GK_H_DGN":5994259.902}},{"type":"Feature","geometry":{"type":"Point","coordinates":[9.78580253,54.08242831]},"properties":{"STRECKE_NR":1042,"RICHTUNG":0,"KM_I":101380034,"KM_L":"13,8 + 34","BEZEICHNUNG":"Aukrug","STELLE_ART":"Hp","KUERZEL":"AAU","GK_R_DGN":3551502.985,"GK_H_DGN":5994934.736}},{"type":"Feature","geometry":{"type":"Point","coordinates":[9.65335043,54.08673988]},"properties":{"STRECKE_NR":1042,"RICHTUNG":0,"KM_I":102270031,"KM_L":"22,7 + 31","BEZEICHNUNG":"Hohenwestedt","STELLE_ART":"Bf","KUERZEL":"AHWT","GK_R_DGN":3542830.335,"GK_H_DGN":5995326.459}},{"type":"Feature","geometry":{"type":"Point","coordinates":[9.57466022,54.10239199]},"properties":{"STRECKE_NR":1042,"RICHTUNG":0,"KM_I":102810066,"KM_L":"28,1 + 66","BEZEICHNUNG":"Osterstedt","STELLE_ART":"Hp","KUERZEL":"AODT","GK_R_DGN":3537666.864,"GK_H_DGN":5997023.912}},{"type":"Feature","geometry":{"type":"Point","coordinates":[9.53799237,54.11362252]},"properties":{"STRECKE_NR":1042,"RICHTUNG":0,"KM_I":103080098,"KM_L":"30,8 + 98","BEZEICHNUNG":"Beringstedt","STELLE_ART":"Hp","KUERZEL":"ABGS","GK_R_DGN":3535258.786,"GK_H_DGN":5998255.057}},{"type":"Feature","geometry":{"type":"Point","coordinates":[9.46858153,54.11908578]},"properties":{"STRECKE_NR":1042,"RICHTUNG":0,"KM_I":103560028,"KM_L":"35,6 + 28","BEZEICHNUNG":"Gokels","STELLE_ART":"Hp","KUERZEL":"AGK","GK_R_DGN":3530715.572,"GK_H_DGN":5998830.842}},{"type":"Feature","geometry":{"type":"Point","coordinates":[9.41509661,54.12281301]},"properties":{"STRECKE_NR":1042,"RICHTUNG":0,"KM_I":103910085,"KM_L":"39,1 + 85","BEZEICHNUNG":"Hademarschen","STELLE_ART":"Hp","KUERZEL":"AHNU","GK_R_DGN":3527215.892,"GK_H_DGN":5999223.852}},{"type":"Feature","geometry":{"type":"Point","coordinates":[9.35558198,54.12518062]},"properties":{"STRECKE_NR":1042,"RICHTUNG":0,"KM_I":104310000,"KM_L":"43,1 + 0","BEZEICHNUNG":"Beldorf","STELLE_ART":"Hp","KUERZEL":"ABE","GK_R_DGN":3523323.395,"GK_H_DGN":5999466.175}},{"type":"Feature","geometry":{"type":"Point","coordinates":[9.29280119,54.14602758]},"properties":{"STRECKE_NR":1042,"RICHTUNG":0,"KM_I":104840022,"KM_L":"48,4 + 22","BEZEICHNUNG":"Albersdorf","STELLE_ART":"Hp","KUERZEL":"AAL","GK_R_DGN":3519209.291,"GK_H_DGN":6001767.757}},{"type":"Feature","geometry":{"type":"Point","coordinates":[9.1804038,54.16894245]},"properties":{"STRECKE_NR":1042,"RICHTUNG":0,"KM_I":105620060,"KM_L":"56,2 + 60","BEZEICHNUNG":"Nordhastedt","STELLE_ART":"Hp","KUERZEL":"ANH","GK_R_DGN":3511858.117,"GK_H_DGN":6004293.762}},{"type":"Feature","geometry":{"type":"Point","coordinates":[9.1010042,54.19424192]},"properties":{"STRECKE_NR":1042,"RICHTUNG":0,"KM_I":106260000,"KM_L":"62,6 + 0","BEZEICHNUNG":"Heide (Holst)","STELLE_ART":"Bf","KUERZEL":"AHI","GK_R_DGN":3506668.541,"GK_H_DGN":6007099.463}},{"type":"Feature","geometry":{"type":"Point","coordinates":[9.98029476,54.07629265]},"properties":{"STRECKE_NR":1043,"RICHTUNG":0,"KM_I":107460059,"KM_L":"74,6 + 59","BEZEICHNUNG":"Neum\x81nster","STELLE_ART":"Bf","KUERZEL":"AN","GK_R_DGN":3564240.673,"GK_H_DGN":5994410.719}},{"type":"Feature","geometry":{"type":"Point","coordinates":[9.97673628,54.07075754]},"properties":{"STRECKE_NR":1043,"RICHTUNG":0,"KM_I":107530020,"KM_L":"75,3 + 20","BEZEICHNUNG":"Neum\x81nster DB-Grenze","STELLE_ART":"Gp","KUERZEL":"ANMG","GK_R_DGN":3564016.267,"GK_H_DGN":5993791.435}},{"type":"Feature","geometry":{"type":"Point","coordinates":[10.00264691,54.04985329]},"properties":{"STRECKE_NR":1043,"RICHTUNG":0,"KM_I":107850000,"KM_L":"78,5 + 0","BEZEICHNUNG":"Neum\x81nster S\x81d DB-Grenze","STELLE_ART":"Gp","KUERZEL":"ANSG","GK_R_DGN":3565745.374,"GK_H_DGN":5991488.515}},{"type":"Feature","geometry":{"type":"Point","coordinates":[10.05740495,54.02195718]},"properties":{"STRECKE_NR":1043,"RICHTUNG":0,"KM_I":108320044,"KM_L":"83,2 + 44","BEZEICHNUNG":"Kleinkummerfeld","STELLE_ART":"Bf a.B.","KUERZEL":"AKD","GK_R_DGN":3569378.067,"GK_H_DGN":5988435.9}},{"type":"Feature","geometry":{"type":"Point","coordinates":[10.16823325,53.99907319]},"properties":{"STRECKE_NR":1043,"RICHTUNG":0,"KM_I":109100007,"KM_L":"91,0 + 7","BEZEICHNUNG":"Rickling","STELLE_ART":"Hp","KUERZEL":"ARL","GK_R_DGN":3576683.453,"GK_H_DGN":5986003.148}},{"type":"Feature","geometry":{"type":"Point","coordinates":[10.22953413,53.96126448]},"properties":{"STRECKE_NR":1043,"RICHTUNG":0,"KM_I":109680032,"KM_L":"96,8 + 32","BEZEICHNUNG":"Wahlstedt","STELLE_ART":"Hp","KUERZEL":"AWAH","GK_R_DGN":3580776.15,"GK_H_DGN":5981863.242}},{"type":"Feature","geometry":{"type":"Point","coordinates":[10.25309687,53.94393254]},"properties":{"STRECKE_NR":1043,"RICHTUNG":0,"KM_I":109930063,"KM_L":"99,3 + 63","BEZEICHNUNG":"Fahrenkrug","STELLE_ART":"Bft","KUERZEL":"AFK","GK_R_DGN":3582356.725,"GK_H_DGN":5979961.375}},{"type":"Feature","geometry":{"type":"Point","coordinates":[10.30778887,53.93399581]},"properties":{"STRECKE_NR":1043,"RICHTUNG":0,"KM_I":110310043,"KM_L":"103,1 + 43","BEZEICHNUNG":"Bad Segeberg","STELLE_ART":"Bf","KUERZEL":"ASB","GK_R_DGN":3585968.127,"GK_H_DGN":5978920.363}},{"type":"Feature","geometry":{"type":"Point","coordinates":[10.35525291,53.89895284]},"properties":{"STRECKE_NR":1043,"RICHTUNG":0,"KM_I":110810073,"KM_L":"108,1 + 73","BEZEICHNUNG":"Alteng”rs","STELLE_ART":"Hp","KUERZEL":"AAT","GK_R_DGN":3589159.833,"GK_H_DGN":5975078.884}},{"type":"Feature","geometry":{"type":"Point","coordinates":[10.36563233,53.8664153]},"properties":{"STRECKE_NR":1043,"RICHTUNG":0,"KM_I":111200005,"KM_L":"112,0 + 5","BEZEICHNUNG":"Wakendorf","STELLE_ART":"Hp","KUERZEL":"AWK","GK_R_DGN":3589911.793,"GK_H_DGN":5971470.788}},{"type":"Feature","geometry":{"type":"Point","coordinates":[10.39070465,53.84204859]},"properties":{"STRECKE_NR":1043,"RICHTUNG":0,"KM_I":111530023,"KM_L":"115,3 + 23","BEZEICHNUNG":"Fresenburg","STELLE_ART":"Hp","KUERZEL":"AFN","GK_R_DGN":3591614.199,"GK_H_DGN":5968791.021}},{"type":"Feature","geometry":{"type":"Point","coordinates":[10.38244755,53.80533924]},"properties":{"STRECKE_NR":1043,"RICHTUNG":0,"KM_I":111950074,"KM_L":"119,5 + 74","BEZEICHNUNG":"Bad Oldesloe","STELLE_ART":"Bf","KUERZEL":"AO","GK_R_DGN":3591150.324,"GK_H_DGN":5964694.969}},{"type":"Feature","geometry":{"type":"Point","coordinates":[10.66942723,53.86789467]},"properties":{"STRECKE_NR":1100,"RICHTUNG":0,"KM_I":100000000,"KM_L":"0,0 + 0","BEZEICHNUNG":"L\x81beck Hbf","STELLE_ART":"Bf","KUERZEL":"AL","GK_R_DGN":3609890.979,"GK_H_DGN":5972062.995}},{"type":"Feature","geometry":{"type":"Point","coordinates":[10.69240067,53.90641539]},"properties":{"STRECKE_NR":1100,"RICHTUNG":0,"KM_I":100460099,"KM_L":"4,6 + 99","BEZEICHNUNG":"Schwartau Waldhalle","STELLE_ART":"Abzw","KUERZEL":"AWR","GK_R_DGN":3611299.712,"GK_H_DGN":5976385.685}},{"type":"Feature","geometry":{"type":"Point","coordinates":[10.70272938,53.91634534]},"properties":{"STRECKE_NR":1100,"RICHTUNG":0,"KM_I":100600002,"KM_L":"6,0 + 2","BEZEICHNUNG":"Bad Schwartau","STELLE_ART":"Hp","KUERZEL":"ASCH","GK_R_DGN":3611951.901,"GK_H_DGN":5977507.021}},{"type":"Feature","geometry":{"type":"Point","coordinates":[10.70639545,53.91966619]},"properties":{"STRECKE_NR":1100,"RICHTUNG":0,"KM_I":100640043,"KM_L":"6,4 + 43","BEZEICHNUNG":"Bad Schwartau Abzw","STELLE_ART":"Abzw","KUERZEL":"ASCA","GK_R_DGN":3612183.856,"GK_H_DGN":5977882.383}},{"type":"Feature","geometry":{"type":"Point","coordinates":[10.74328048,53.94982463]},"properties":{"STRECKE_NR":1100,"RICHTUNG":0,"KM_I":101050088,"KM_L":"10,5 + 88","BEZEICHNUNG":"Ratekau","STELLE_ART":"Bf","KUERZEL":"ARAT","GK_R_DGN":3614524.352,"GK_H_DGN":5981297.61}},{"type":"Feature","geometry":{"type":"Point","coordinates":[10.7621749,53.9943607]},"properties":{"STRECKE_NR":1100,"RICHTUNG":0,"KM_I":101570066,"KM_L":"15,7 + 66","BEZEICHNUNG":"Timmendorfer Strand","STELLE_ART":"Bf","KUERZEL":"ATIM","GK_R_DGN":3615641.352,"GK_H_DGN":5986284.612}},{"type":"Feature","geometry":{"type":"Point","coordinates":[10.74563156,54.01877078]},"properties":{"STRECKE_NR":1100,"RICHTUNG":0,"KM_I":101860098,"KM_L":"18,6 + 98","BEZEICHNUNG":"Scharbeutz","STELLE_ART":"Bf","KUERZEL":"ASAZ","GK_R_DGN":3614489.54,"GK_H_DGN":5988974.302}},{"type":"Feature","geometry":{"type":"Point","coordinates":[10.74240394,54.05415554]},"properties":{"STRECKE_NR":1100,"RICHTUNG":0,"KM_I":102300044,"KM_L":"23,0 + 44","BEZEICHNUNG":"Haffkrug","STELLE_ART":"Bf","KUERZEL":"AHAF","GK_R_DGN":3614181.052,"GK_H_DGN":5992907.029}},{"type":"Feature","geometry":{"type":"Point","coordinates":[10.7686444,54.06849141]},"properties":{"STRECKE_NR":1100,"RICHTUNG":0,"KM_I":102540000,"KM_L":"25,4 + 0","BEZEICHNUNG":"Sierksdorf","STELLE_ART":"Bf","KUERZEL":"ASID","GK_R_DGN":3615859.409,"GK_H_DGN":5994545.089}},{"type":"Feature","geometry":{"type":"Point","coordinates":[10.79469425,54.09564927]},"properties":{"STRECKE_NR":1100,"RICHTUNG":0,"KM_I":102900067,"KM_L":"29,0 + 67","BEZEICHNUNG":"Neustadt (Holst) Gbf","STELLE_ART":"Bf","KUERZEL":"ANN","GK_R_DGN":3617487.88,"GK_H_DGN":5997610.407}},{"type":"Feature","geometry":{"type":"Point","coordinates":[10.82331948,54.13901952]},"properties":{"STRECKE_NR":1100,"RICHTUNG":0,"KM_I":103440067,"KM_L":"34,4 + 67","BEZEICHNUNG":"Hasselburg","STELLE_ART":"Bf","KUERZEL":"AHSG","GK_R_DGN":3619235.902,"GK_H_DGN":6002484.942}},{"type":"Feature","geometry":{"type":"Point","coordinates":[10.86369084,54.16402028]},"properties":{"STRECKE_NR":1100,"RICHTUNG":0,"KM_I":103830065,"KM_L":"38,3 + 65","BEZEICHNUNG":"Groá Schlamin","STELLE_ART":"Bf","KUERZEL":"AGR","GK_R_DGN":3621800.629,"GK_H_DGN":6005336.062}},{"type":"Feature","geometry":{"type":"Point","coordinates":[10.87559852,54.19260408]},"properties":{"STRECKE_NR":1100,"RICHTUNG":0,"KM_I":104160084,"KM_L":"41,6 + 84","BEZEICHNUNG":"Beschendorf","STELLE_ART":"Bf","KUERZEL":"ABDF","GK_R_DGN":3622493.809,"GK_H_DGN":6008537.703}},{"type":"Feature","geometry":{"type":"Point","coordinates":[10.89058899,54.2201289]},"properties":{"STRECKE_NR":1100,"RICHTUNG":0,"KM_I":104490063,"KM_L":"44,9 + 63","BEZEICHNUNG":"Lensahn","STELLE_ART":"Bf","KUERZEL":"ALS","GK_R_DGN":3623390.088,"GK_H_DGN":6011627.001}},{"type":"Feature","geometry":{"type":"Point","coordinates":[10.88712641,54.23895865]},"properties":{"STRECKE_NR":1100,"RICHTUNG":0,"KM_I":104700096,"KM_L":"47,0 + 96","BEZEICHNUNG":"Gr\x81ner Hirsch","STELLE_ART":"Bf","KUERZEL":"AGHI","GK_R_DGN":3623108.244,"GK_H_DGN":6013716.513}},{"type":"Feature","geometry":{"type":"Point","coordinates":[10.8826418,54.28396039]},"properties":{"STRECKE_NR":1100,"RICHTUNG":0,"KM_I":105220072,"KM_L":"52,2 + 72","BEZEICHNUNG":"Oldenburg (Holst)","STELLE_ART":"Bf","KUERZEL":"AOL","GK_R_DGN":3622682.276,"GK_H_DGN":6018716.957}},{"type":"Feature","geometry":{"type":"Point","coordinates":[10.94171537,54.28764008]},"properties":{"STRECKE_NR":1100,"RICHTUNG":0,"KM_I":105660003,"KM_L":"56,6 + 3","BEZEICHNUNG":"G”hl","STELLE_ART":"Bf","KUERZEL":"AGOE","GK_R_DGN":3626517.683,"GK_H_DGN":6019230.742}},{"type":"Feature","geometry":{"type":"Point","coordinates":[11.03025783,54.32570681]},"properties":{"STRECKE_NR":1100,"RICHTUNG":0,"KM_I":106430049,"KM_L":"64,3 + 49","BEZEICHNUNG":"Neukirchen (Holst)","STELLE_ART":"Bf","KUERZEL":"ANEK","GK_R_DGN":3632160.718,"GK_H_DGN":6023629.424}},{"type":"Feature","geometry":{"type":"Point","coordinates":[11.08114462,54.36647154]},"properties":{"STRECKE_NR":1100,"RICHTUNG":0,"KM_I":107040090,"KM_L":"70,4 + 90","BEZEICHNUNG":"Groáenbrode","STELLE_ART":"Bf","KUERZEL":"AGRO","GK_R_DGN":3635336.9,"GK_H_DGN":6028262.541}},{"type":"Feature","geometry":{"type":"Point","coordinates":[11.13145199,54.42427441]},"properties":{"STRECKE_NR":1100,"RICHTUNG":0,"KM_I":107780024,"KM_L":"77,8 + 24","BEZEICHNUNG":"Strukkamp","STELLE_ART":"Bf","KUERZEL":"ASTK","GK_R_DGN":3638411.415,"GK_H_DGN":6034792.97}},{"type":"Feature","geometry":{"type":"Point","coordinates":[11.18080135,54.45033292]},"properties":{"STRECKE_NR":1100,"RICHTUNG":0,"KM_I":108210054,"KM_L":"82,1 + 54","BEZEICHNUNG":"Burg (Fehmarn) West","STELLE_ART":"Bf","KUERZEL":"ABUW","GK_R_DGN":3641523.955,"GK_H_DGN":6037790.994}},{"type":"Feature","geometry":{"type":"Point","coordinates":[11.22745176,54.50087278]},"properties":{"STRECKE_NR":1100,"RICHTUNG":0,"KM_I":108850088,"KM_L":"88,5 + 88","BEZEICHNUNG":"Puttgarden","STELLE_ART":"Bf","KUERZEL":"APU","GK_R_DGN":3644371.187,"GK_H_DGN":6043510.105}},{"type":"Feature","geometry":{"type":"Point","coordinates":[11.18609275,54.4470587]},"properties":{"STRECKE_NR":1103,"RICHTUNG":0,"KM_I":100790080,"KM_L":"7,9 + 80","BEZEICHNUNG":"Burg (Fehmarn) DB-Grenze","STELLE_ART":"Gp","KUERZEL":"ABUG","GK_R_DGN":3641878.421,"GK_H_DGN":6037437.262}},{"type":"Feature","geometry":{"type":"Point","coordinates":[10.67100035,54.04654706]},"properties":{"STRECKE_NR":1110,"RICHTUNG":0,"KM_I":101150042,"KM_L":"11,5 + 42","BEZEICHNUNG":"P”nitz (Holst)","STELLE_ART":"Bf","KUERZEL":"APN","GK_R_DGN":3609525.454,"GK_H_DGN":5991947.487}},{"type":"Feature","geometry":{"type":"Point","coordinates":[10.70305438,53.98096098]},"properties":{"STRECKE_NR":1110,"RICHTUNG":0,"KM_I":101920051,"KM_L":"19,2 + 51","BEZEICHNUNG":"Pansdorf","STELLE_ART":"Bf","KUERZEL":"APF","GK_R_DGN":3611800.389,"GK_H_DGN":5984698.502}},{"type":"Feature","geometry":{"type":"Point","coordinates":[10.70639545,53.91966619]},"properties":{"STRECKE_NR":1110,"RICHTUNG":0,"KM_I":102650005,"KM_L":"26,5 + 5","BEZEICHNUNG":"Bad Schwartau Abzw","STELLE_ART":"Abzw","KUERZEL":"ASCA","GK_R_DGN":3612183.856,"GK_H_DGN":5977882.383}},{"type":"Feature","geometry":{"type":"Point","coordinates":[10.69240067,53.90641539]},"properties":{"STRECKE_NR":1113,"RICHTUNG":0,"KM_I":100460099,"KM_L":"4,6 + 99","BEZEICHNUNG":"Schwartau Waldhalle","STELLE_ART":"Abzw","KUERZEL":"AWR","GK_R_DGN":3611299.712,"GK_H_DGN":5976385.685}},{"type":"Feature","geometry":{"type":"Point","coordinates":[10.73766326,53.91137891]},"properties":{"STRECKE_NR":1113,"RICHTUNG":0,"KM_I":100820004,"KM_L":"8,2 + 4","BEZEICHNUNG":"L\x81beck-D„nischburg","STELLE_ART":"Bf","KUERZEL":"ALD","GK_R_DGN":3614260.529,"GK_H_DGN":5977010.025}},{"type":"Feature","geometry":{"type":"Point","coordinates":[10.80220098,53.91719298]},"properties":{"STRECKE_NR":1113,"RICHTUNG":0,"KM_I":101250048,"KM_L":"12,5 + 48","BEZEICHNUNG":"L\x81beck-K\x81cknitz","STELLE_ART":"Abzw","KUERZEL":"ALKN","GK_R_DGN":3618484.529,"GK_H_DGN":5977762.942}},{"type":"Feature","geometry":{"type":"Point","coordinates":[10.81806171,53.92450637]},"properties":{"STRECKE_NR":1113,"RICHTUNG":0,"KM_I":101390001,"KM_L":"13,9 + 1","BEZEICHNUNG":"L\x81beck-K\x81cknitz Roter Hahn","STELLE_ART":"Hp","KUERZEL":"ALKR","GK_R_DGN":3619505.627,"GK_H_DGN":5978603.432}},{"type":"Feature","geometry":{"type":"Point","coordinates":[10.85387144,53.95098073]},"properties":{"STRECKE_NR":1113,"RICHTUNG":0,"KM_I":101790005,"KM_L":"17,9 + 5","BEZEICHNUNG":"L\x81beck-Travem\x81nde Skandinavienkai","STELLE_ART":"Hp","KUERZEL":"ALTK","GK_R_DGN":3621780.652,"GK_H_DGN":5981610.58}},{"type":"Feature","geometry":{"type":"Point","coordinates":[10.86650703,53.95888669]},"properties":{"STRECKE_NR":1113,"RICHTUNG":0,"KM_I":101960034,"KM_L":"19,6 + 34","BEZEICHNUNG":"L\x81beck-Travem\x81nde Hafen","STELLE_ART":"Hp","KUERZEL":"ALTH","GK_R_DGN":3622586.892,"GK_H_DGN":5982512.178}},{"type":"Feature","geometry":{"type":"Point","coordinates":[10.87603335,53.96505655]},"properties":{"STRECKE_NR":1113,"RICHTUNG":0,"KM_I":102060019,"KM_L":"20,6 + 19","BEZEICHNUNG":"L\x81beck-Travem\x81nde Strand","STELLE_ART":"Hp","KUERZEL":"ALTS","GK_R_DGN":3623193.911,"GK_H_DGN":5983215.31}},{"type":"Feature","geometry":{"type":"Point","coordinates":[10.73765021,53.911374]},"properties":{"STRECKE_NR":1115,"RICHTUNG":0,"KM_I":99999926,"KM_L":"-0,0 + -73","BEZEICHNUNG":"L\x81beck-D„nischburg","STELLE_ART":"Bf","KUERZEL":"ALD","GK_R_DGN":3614259.685,"GK_H_DGN":5977009.458}},{"type":"Feature","geometry":{"type":"Point","coordinates":[10.66988858,53.86747631]},"properties":{"STRECKE_NR":1120,"RICHTUNG":0,"KM_I":100000000,"KM_L":"0,0 + 0","BEZEICHNUNG":"L\x81beck Hbf","STELLE_ART":"Bf","KUERZEL":"AL","GK_R_DGN":3609922.42,"GK_H_DGN":5972017.151}},{"type":"Feature","geometry":{"type":"Point","coordinates":[10.65555431,53.85013677]},"properties":{"STRECKE_NR":1120,"RICHTUNG":0,"KM_I":100240088,"KM_L":"2,4 + 88","BEZEICHNUNG":"L\x81beck Hgbf Abzw","STELLE_ART":"Bft Abzw","KUERZEL":"ALRA","GK_R_DGN":3609024.624,"GK_H_DGN":5970065.37}},{"type":"Feature","geometry":{"type":"Point","coordinates":[10.61256729,53.83511158]},"properties":{"STRECKE_NR":1120,"RICHTUNG":0,"KM_I":100750011,"KM_L":"7,5 + 11","BEZEICHNUNG":"L\x81beck-Niendorf","STELLE_ART":"Bf a.B.","KUERZEL":"ALN","GK_R_DGN":3606233.975,"GK_H_DGN":5968328.085}},{"type":"Feature","geometry":{"type":"Point","coordinates":[10.49429561,53.83050242]},"properties":{"STRECKE_NR":1120,"RICHTUNG":0,"KM_I":101580033,"KM_L":"15,8 + 33","BEZEICHNUNG":"Reinfeld (Holst)","STELLE_ART":"Bf","KUERZEL":"ARD","GK_R_DGN":3598459.315,"GK_H_DGN":5967644.674}},{"type":"Feature","geometry":{"type":"Point","coordinates":[10.38253739,53.80529988]},"properties":{"STRECKE_NR":1120,"RICHTUNG":0,"KM_I":102380087,"KM_L":"23,8 + 87","BEZEICHNUNG":"Bad Oldesloe","STELLE_ART":"Bf","KUERZEL":"AO","GK_R_DGN":3591156.327,"GK_H_DGN":5964690.704}},{"type":"Feature","geometry":{"type":"Point","coordinates":[10.32672388,53.76242408]},"properties":{"STRECKE_NR":1120,"RICHTUNG":0,"KM_I":102990071,"KM_L":"29,9 + 71","BEZEICHNUNG":"Kupferm\x81hle","STELLE_ART":"Hp","KUERZEL":"AKUP","GK_R_DGN":3587568.749,"GK_H_DGN":5959848.83}},{"type":"Feature","geometry":{"type":"Point","coordinates":[10.26900058,53.72818684]},"properties":{"STRECKE_NR":1120,"RICHTUNG":0,"KM_I":103540005,"KM_L":"35,4 + 5","BEZEICHNUNG":"Bargteheide","STELLE_ART":"Bf","KUERZEL":"ABAE","GK_R_DGN":3583830.359,"GK_H_DGN":5955968.958}},{"type":"Feature","geometry":{"type":"Point","coordinates":[10.2518443,53.68905399]},"properties":{"STRECKE_NR":1120,"RICHTUNG":0,"KM_I":103990010,"KM_L":"39,9 + 10","BEZEICHNUNG":"Ahrensburg-Gartenholz","STELLE_ART":"Hp","KUERZEL":"AAHG","GK_R_DGN":3582774.805,"GK_H_DGN":5951593.738}},{"type":"Feature","geometry":{"type":"Point","coordinates":[10.25042188,53.6856544]},"properties":{"STRECKE_NR":1120,"RICHTUNG":0,"KM_I":104030000,"KM_L":"40,3 + 0","BEZEICHNUNG":"Ahrensburg Nord","STELLE_ART":"Awanst","KUERZEL":"AAHN","GK_R_DGN":3582687.497,"GK_H_DGN":5951213.742}},{"type":"Feature","geometry":{"type":"Point","coordinates":[10.23618111,53.66931954]},"properties":{"STRECKE_NR":1120,"RICHTUNG":0,"KM_I":104240037,"KM_L":"42,4 + 37","BEZEICHNUNG":"Ahrensburg","STELLE_ART":"Bf","KUERZEL":"AAHR","GK_R_DGN":3581778.304,"GK_H_DGN":5949379.371}},{"type":"Feature","geometry":{"type":"Point","coordinates":[10.15421471,53.60482284]},"properties":{"STRECKE_NR":1120,"RICHTUNG":0,"KM_I":105160065,"KM_L":"51,6 + 65","BEZEICHNUNG":"Hamburg-Rahlstedt","STELLE_ART":"Bf","KUERZEL":"ARAL","GK_R_DGN":3576477.626,"GK_H_DGN":5942110.422}},{"type":"Feature","geometry":{"type":"Point","coordinates":[10.12447938,53.58729407]},"properties":{"STRECKE_NR":1120,"RICHTUNG":0,"KM_I":105440036,"KM_L":"54,4 + 36","BEZEICHNUNG":"Hamburg-Tonndorf","STELLE_ART":"Hp","KUERZEL":"AOW","GK_R_DGN":3574540.233,"GK_H_DGN":5940128.127}},{"type":"Feature","geometry":{"type":"Point","coordinates":[10.07708953,53.56997307]},"properties":{"STRECKE_NR":1120,"RICHTUNG":0,"KM_I":105820000,"KM_L":"58,2 + 0","BEZEICHNUNG":"Hamburg-Wandsbek","STELLE_ART":"Bf","KUERZEL":"AWN","GK_R_DGN":3571431.302,"GK_H_DGN":5938151.934}},{"type":"Feature","geometry":{"type":"Point","coordinates":[10.05639495,53.56477517]},"properties":{"STRECKE_NR":1120,"RICHTUNG":0,"KM_I":105960089,"KM_L":"59,6 + 89","BEZEICHNUNG":"Hamburg Hasselbrook","STELLE_ART":"Hp","KUERZEL":"AHSF","GK_R_DGN":3570068.951,"GK_H_DGN":5937552.916}},{"type":"Feature","geometry":{"type":"Point","coordinates":[10.02944042,53.55778064]},"properties":{"STRECKE_NR":1120,"RICHTUNG":0,"KM_I":106160071,"KM_L":"61,6 + 71","BEZEICHNUNG":"Hamburg Berliner Tor (šst)","STELLE_ART":"šst","KUERZEL":"AHBT","GK_R_DGN":3568294.351,"GK_H_DGN":5936748.332}},{"type":"Feature","geometry":{"type":"Point","coordinates":[10.00650182,53.5535773]},"properties":{"STRECKE_NR":1120,"RICHTUNG":0,"KM_I":106380096,"KM_L":"63,8 + 96","BEZEICHNUNG":"Hamburg Hbf","STELLE_ART":"Bf","KUERZEL":"AH","GK_R_DGN":3566780.928,"GK_H_DGN":5936258.81}},{"type":"Feature","geometry":{"type":"Point","coordinates":[10.65555431,53.85013677]},"properties":{"STRECKE_NR":1121,"RICHTUNG":0,"KM_I":100240082,"KM_L":"2,4 + 82","BEZEICHNUNG":"L\x81beck Hgbf Abzw","STELLE_ART":"Bft Abzw","KUERZEL":"ALRA","GK_R_DGN":3609024.624,"GK_H_DGN":5970065.37}},{"type":"Feature","geometry":{"type":"Point","coordinates":[10.68893948,53.83054135]},"properties":{"STRECKE_NR":1121,"RICHTUNG":0,"KM_I":100450012,"KM_L":"4,5 + 12","BEZEICHNUNG":"L\x81beck Hochschulstadtteil","STELLE_ART":"Hp","KUERZEL":"ALHS","GK_R_DGN":3611273.357,"GK_H_DGN":5967936.448}},{"type":"Feature","geometry":{"type":"Point","coordinates":[10.69714209,53.80497229]},"properties":{"STRECKE_NR":1121,"RICHTUNG":0,"KM_I":100740009,"KM_L":"7,4 + 9","BEZEICHNUNG":"L\x81beck Flughafen","STELLE_ART":"Hp","KUERZEL":"ALB","GK_R_DGN":3611881.409,"GK_H_DGN":5965103.849}},{"type":"Feature","geometry":{"type":"Point","coordinates":[10.72756789,53.7540526]},"properties":{"STRECKE_NR":1121,"RICHTUNG":0,"KM_I":101350073,"KM_L":"13,5 + 73","BEZEICHNUNG":"Pogeez","STELLE_ART":"Bf","KUERZEL":"APOF","GK_R_DGN":3614023.521,"GK_H_DGN":5959485.603}},{"type":"Feature","geometry":{"type":"Point","coordinates":[10.74055891,53.6983243]},"properties":{"STRECKE_NR":1121,"RICHTUNG":0,"KM_I":101990050,"KM_L":"19,9 + 50","BEZEICHNUNG":"Ratzeburg","STELLE_ART":"Bf","KUERZEL":"ARF","GK_R_DGN":3615032.244,"GK_H_DGN":5953304.86}},{"type":"Feature","geometry":{"type":"Point","coordinates":[10.68300464,53.62447604]},"properties":{"STRECKE_NR":1121,"RICHTUNG":0,"KM_I":102920030,"KM_L":"29,2 + 30","BEZEICHNUNG":"M”lln (Lauenburg)","STELLE_ART":"Bf","KUERZEL":"AMLN","GK_R_DGN":3611425.884,"GK_H_DGN":5944995.199}},{"type":"Feature","geometry":{"type":"Point","coordinates":[10.65666946,53.53790212]},"properties":{"STRECKE_NR":1121,"RICHTUNG":0,"KM_I":103930048,"KM_L":"39,3 + 48","BEZEICHNUNG":"G\x81ster","STELLE_ART":"Bf","KUERZEL":"AGUE","GK_R_DGN":3609907.887,"GK_H_DGN":5935320.11}},{"type":"Feature","geometry":{"type":"Point","coordinates":[10.69712707,53.84243299]},"properties":{"STRECKE_NR":1122,"RICHTUNG":0,"KM_I":100600020,"KM_L":"6,0 + 20","BEZEICHNUNG":"Strecknitz","STELLE_ART":"Abzw","KUERZEL":"ASTR","GK_R_DGN":3611780.712,"GK_H_DGN":5969272.689}},{"type":"Feature","geometry":{"type":"Point","coordinates":[10.70344224,53.84233443]},"properties":{"STRECKE_NR":1122,"RICHTUNG":0,"KM_I":100640036,"KM_L":"6,4 + 36","BEZEICHNUNG":"L\x81beck St J\x81rgen","STELLE_ART":"Hp","KUERZEL":"ALSJ","GK_R_DGN":3612196.602,"GK_H_DGN":5969271.682}},{"type":"Feature","geometry":{"type":"Point","coordinates":[10.75978046,53.83771803]},"properties":{"STRECKE_NR":1122,"RICHTUNG":0,"KM_I":101020000,"KM_L":"10,2 + 0","BEZEICHNUNG":"Herrnburg","STELLE_ART":"Bf","KUERZEL":"WHB","GK_R_DGN":3615917.18,"GK_H_DGN":5968848.45}},{"type":"Feature","geometry":{"type":"Point","coordinates":[10.81514671,53.83295042]},"properties":{"STRECKE_NR":1122,"RICHTUNG":0,"KM_I":101120080,"KM_L":"11,2 + 80","BEZEICHNUNG":"L\x81dersdorf (Meckl)","STELLE_ART":"Hp","KUERZEL":"WLF","GK_R_DGN":3619574.987,"GK_H_DGN":5968409.708}},{"type":"Feature","geometry":{"type":"Point","coordinates":[10.92840386,53.8536738]},"properties":{"STRECKE_NR":1122,"RICHTUNG":0,"KM_I":101940007,"KM_L":"19,4 + 7","BEZEICHNUNG":"Sch”nberg (Meckl)","STELLE_ART":"Bf","KUERZEL":"WSBG","GK_R_DGN":3626967.673,"GK_H_DGN":5970912.553}},{"type":"Feature","geometry":{"type":"Point","coordinates":[11.01279261,53.84812193]},"properties":{"STRECKE_NR":1122,"RICHTUNG":0,"KM_I":102530041,"KM_L":"25,3 + 41","BEZEICHNUNG":"Menzendorf","STELLE_ART":"Bf","KUERZEL":"WMEF","GK_R_DGN":3632537.424,"GK_H_DGN":5970449.003}},{"type":"Feature","geometry":{"type":"Point","coordinates":[11.06859907,53.85131391]},"properties":{"STRECKE_NR":1122,"RICHTUNG":0,"KM_I":102900040,"KM_L":"29,0 + 40","BEZEICHNUNG":"Grieben (Meckl)","STELLE_ART":"Bf","KUERZEL":"WGBN","GK_R_DGN":3636199.196,"GK_H_DGN":5970909.86}},{"type":"Feature","geometry":{"type":"Point","coordinates":[11.18437182,53.85737104]},"properties":{"STRECKE_NR":1122,"RICHTUNG":0,"KM_I":103670000,"KM_L":"36,7 + 0","BEZEICHNUNG":"Grevesm\x81hlen","STELLE_ART":"Bf","KUERZEL":"WGV","GK_R_DGN":3643795.714,"GK_H_DGN":5971812.274}},{"type":"Feature","geometry":{"type":"Point","coordinates":[11.2860104,53.83711048]},"properties":{"STRECKE_NR":1122,"RICHTUNG":0,"KM_I":104410052,"KM_L":"44,1 + 52","BEZEICHNUNG":"Pl\x81schow","STELLE_ART":"Hp","KUERZEL":"WPSW","GK_R_DGN":3650554.591,"GK_H_DGN":5969768.54}},{"type":"Feature","geometry":{"type":"Point","coordinates":[11.36278363,53.80461773]},"properties":{"STRECKE_NR":1122,"RICHTUNG":0,"KM_I":105050070,"KM_L":"50,5 + 70","BEZEICHNUNG":"Bobitz","STELLE_ART":"Bf","KUERZEL":"WBO","GK_R_DGN":3655727.819,"GK_H_DGN":5966318.581}},{"type":"Feature","geometry":{"type":"Point","coordinates":[11.46663175,53.76674595]},"properties":{"STRECKE_NR":1122,"RICHTUNG":0,"KM_I":105930020,"KM_L":"59,3 + 20","BEZEICHNUNG":"Bad Kleinen","STELLE_ART":"Bf","KUERZEL":"WK","GK_R_DGN":3662714.175,"GK_H_DGN":5962337.39}},{"type":"Feature","geometry":{"type":"Point","coordinates":[11.57991664,53.78719991]},"properties":{"STRECKE_NR":1122,"RICHTUNG":0,"KM_I":106760000,"KM_L":"67,6 + 0","BEZEICHNUNG":"Ventschow","STELLE_ART":"Hp šst","KUERZEL":"WVE","GK_R_DGN":3670099.436,"GK_H_DGN":5964878.688}},{"type":"Feature","geometry":{"type":"Point","coordinates":[11.71509879,53.77224988]},"properties":{"STRECKE_NR":1122,"RICHTUNG":0,"KM_I":107680000,"KM_L":"76,8 + 0","BEZEICHNUNG":"Blankenberg (Meckl)","STELLE_ART":"Bf","KUERZEL":"WBL","GK_R_DGN":3679069.979,"GK_H_DGN":5963547.617}},{"type":"Feature","geometry":{"type":"Point","coordinates":[11.87185441,53.78901379]},"properties":{"STRECKE_NR":1122,"RICHTUNG":0,"KM_I":108960060,"KM_L":"89,6 + 60","BEZEICHNUNG":"Warnow (Meckl)","STELLE_ART":"Bf","KUERZEL":"WWRN","GK_R_DGN":3689326.132,"GK_H_DGN":5965819.411}},{"type":"Feature","geometry":{"type":"Point","coordinates":[11.99855709,53.83738062]},"properties":{"STRECKE_NR":1122,"RICHTUNG":0,"KM_I":109980070,"KM_L":"99,8 + 70","BEZEICHNUNG":"B\x81tzow","STELLE_ART":"Bf","KUERZEL":"WB","GK_R_DGN":3697445.856,"GK_H_DGN":5971545.786}},{"type":"Feature","geometry":{"type":"Point","coordinates":[12.08805244,53.83093689]},"properties":{"STRECKE_NR":1122,"RICHTUNG":0,"KM_I":110660081,"KM_L":"106,6 + 81","BEZEICHNUNG":"Schwiesower Forst","STELLE_ART":"Bf a.B.","KUERZEL":"WSWF","GK_R_DGN":3703366.1,"GK_H_DGN":5971081.687}},{"type":"Feature","geometry":{"type":"Point","coordinates":[12.16388097,53.80533955]},"properties":{"STRECKE_NR":1122,"RICHTUNG":0,"KM_I":111250000,"KM_L":"112,5 + 0","BEZEICHNUNG":"G\x81strow Gbf","STELLE_ART":"Bft","KUERZEL":"WG  G","GK_R_DGN":3708483.514,"GK_H_DGN":5968454.012}},{"type":"Feature","geometry":{"type":"Point","coordinates":[12.17244564,53.80073151]},"properties":{"STRECKE_NR":1122,"RICHTUNG":0,"KM_I":111320063,"KM_L":"113,2 + 63","BEZEICHNUNG":"G\x81strow","STELLE_ART":"Bf","KUERZEL":"WG","GK_R_DGN":3709070.432,"GK_H_DGN":5967966.565}},{"type":"Feature","geometry":{"type":"Point","coordinates":[12.222939,53.79603366]},"properties":{"STRECKE_NR":1122,"RICHTUNG":0,"KM_I":111670049,"KM_L":"116,7 + 49","BEZEICHNUNG":"Priemerburg - NUP G\x81strow","STELLE_ART":"Bf","KUERZEL":"WPI","GK_R_DGN":3712419.529,"GK_H_DGN":5967593.865}},{"type":"Feature","geometry":{"type":"Point","coordinates":[12.24417684,53.78908968]},"properties":{"STRECKE_NR":1122,"RICHTUNG":0,"KM_I":111840000,"KM_L":"118,4 + 0","BEZEICHNUNG":"Priemerwald S\x81d (ehemals)","STELLE_ART":"Bf","KUERZEL":"WPWS","GK_R_DGN":3713853.666,"GK_H_DGN":5966885.141}},{"type":"Feature","geometry":{"type":"Point","coordinates":[12.38631546,53.75501634]},"properties":{"STRECKE_NR":1122,"RICHTUNG":0,"KM_I":112900030,"KM_L":"129,0 + 30","BEZEICHNUNG":"Lalendorf","STELLE_ART":"Bf","KUERZEL":"WLD","GK_R_DGN":3723397.702,"GK_H_DGN":5963532.394}},{"type":"Feature","geometry":{"type":"Point","coordinates":[12.50084295,53.76000668]},"properties":{"STRECKE_NR":1122,"RICHTUNG":0,"KM_I":113660000,"KM_L":"136,6 + 0","BEZEICHNUNG":"Neu Wokern","STELLE_ART":"Hp","KUERZEL":"WNWO","GK_R_DGN":3730920.418,"GK_H_DGN":5964453.924}},{"type":"Feature","geometry":{"type":"Point","coordinates":[12.57815313,53.76840606]},"properties":{"STRECKE_NR":1122,"RICHTUNG":0,"KM_I":114220089,"KM_L":"142,2 + 89","BEZEICHNUNG":"Teterow","STELLE_ART":"Bf","KUERZEL":"WTE","GK_R_DGN":3735969.123,"GK_H_DGN":5965642.456}},{"type":"Feature","geometry":{"type":"Point","coordinates":[12.66454049,53.77214285]},"properties":{"STRECKE_NR":1122,"RICHTUNG":0,"KM_I":114870079,"KM_L":"148,7 + 79","BEZEICHNUNG":"Hohen Mistorf","STELLE_ART":"Bf a.B.","KUERZEL":"WHMT","GK_R_DGN":3741640.501,"GK_H_DGN":5966348.737}},{"type":"Feature","geometry":{"type":"Point","coordinates":[12.76108327,53.74339475]},"properties":{"STRECKE_NR":1122,"RICHTUNG":0,"KM_I":115630015,"KM_L":"156,3 + 15","BEZEICHNUNG":"Malchin","STELLE_ART":"Bf","KUERZEL":"WMA","GK_R_DGN":3748171.359,"GK_H_DGN":5963484.154}},{"type":"Feature","geometry":{"type":"Point","coordinates":[12.83864157,53.71967151]},"properties":{"STRECKE_NR":1122,"RICHTUNG":0,"KM_I":116230000,"KM_L":"162,3 + 0","BEZEICHNUNG":"Scharpzow","STELLE_ART":"Bf a.B.","KUERZEL":"WSRP","GK_R_DGN":3753427.863,"GK_H_DGN":5961119.439}},{"type":"Feature","geometry":{"type":"Point","coordinates":[12.91397161,53.70691558]},"properties":{"STRECKE_NR":1122,"RICHTUNG":0,"KM_I":116750007,"KM_L":"167,5 + 7","BEZEICHNUNG":"Reuterstadt Stavenhagen","STELLE_ART":"Bf","KUERZEL":"WRST","GK_R_DGN":3758475.618,"GK_H_DGN":5959972.159}},{"type":"Feature","geometry":{"type":"Point","coordinates":[12.99954071,53.68328843]},"properties":{"STRECKE_NR":1122,"RICHTUNG":0,"KM_I":117370040,"KM_L":"173,7 + 40","BEZEICHNUNG":"Grischow (Meckl)","STELLE_ART":"Bf","KUERZEL":"WGRO","GK_R_DGN":3764270.216,"GK_H_DGN":5957659.206}},{"type":"Feature","geometry":{"type":"Point","coordinates":[13.06042745,53.62316794]},"properties":{"STRECKE_NR":1122,"RICHTUNG":0,"KM_I":118230081,"KM_L":"182,3 + 81","BEZEICHNUNG":"Kleeth","STELLE_ART":"Bf","KUERZEL":"WKLE","GK_R_DGN":3768672.461,"GK_H_DGN":5951201.135}},{"type":"Feature","geometry":{"type":"Point","coordinates":[13.08444178,53.58594438]},"properties":{"STRECKE_NR":1122,"RICHTUNG":0,"KM_I":118690050,"KM_L":"186,9 + 50","BEZEICHNUNG":"M”lln (Meckl)","STELLE_ART":"Hp","KUERZEL":"WMOE","GK_R_DGN":3770498.162,"GK_H_DGN":5947152.4}},{"type":"Feature","geometry":{"type":"Point","coordinates":[13.13628183,53.56947682]},"properties":{"STRECKE_NR":1122,"RICHTUNG":0,"KM_I":119100030,"KM_L":"191,0 + 30","BEZEICHNUNG":"Blankenhof","STELLE_ART":"Bf","KUERZEL":"WBLH","GK_R_DGN":3774035.198,"GK_H_DGN":5945519.423}},{"type":"Feature","geometry":{"type":"Point","coordinates":[13.26180611,53.56201301]},"properties":{"STRECKE_NR":1122,"RICHTUNG":0,"KM_I":120090038,"KM_L":"200,9 + 38","BEZEICHNUNG":"Neubrandenburg","STELLE_ART":"Bf","KUERZEL":"WN","GK_R_DGN":3782394.371,"GK_H_DGN":5945180.265}},{"type":"Feature","geometry":{"type":"Point","coordinates":[13.27197724,53.56081679]},"properties":{"STRECKE_NR":1122,"RICHTUNG":0,"KM_I":120160025,"KM_L":"201,6 + 25","BEZEICHNUNG":"Neubrandenburg Gbf","STELLE_ART":"Bft","KUERZEL":"WN  G","GK_R_DGN":3783075.771,"GK_H_DGN":5945087.66}},{"type":"Feature","geometry":{"type":"Point","coordinates":[13.3662641,53.56388231]},"properties":{"STRECKE_NR":1122,"RICHTUNG":0,"KM_I":120800045,"KM_L":"208,0 + 45","BEZEICHNUNG":"Sponholz","STELLE_ART":"Bf","KUERZEL":"WSP","GK_R_DGN":3789297.388,"GK_H_DGN":5945807.854}},{"type":"Feature","geometry":{"type":"Point","coordinates":[13.45772353,53.54719258]},"properties":{"STRECKE_NR":1122,"RICHTUNG":0,"KM_I":121460020,"KM_L":"214,6 + 20","BEZEICHNUNG":"R\x81hlow","STELLE_ART":"Hp a.B.","KUERZEL":"WRUE","GK_R_DGN":3795468.473,"GK_H_DGN":5944327.858}},{"type":"Feature","geometry":{"type":"Point","coordinates":[13.50076143,53.53353043]},"properties":{"STRECKE_NR":1122,"RICHTUNG":0,"KM_I":121780066,"KM_L":"217,8 + 66","BEZEICHNUNG":"Neetzka","STELLE_ART":"Hp","KUERZEL":"WNA","GK_R_DGN":3798414.848,"GK_H_DGN":5942988.296}},{"type":"Feature","geometry":{"type":"Point","coordinates":[13.57315277,53.51804111]},"properties":{"STRECKE_NR":1122,"RICHTUNG":0,"KM_I":122290071,"KM_L":"222,9 + 71","BEZEICHNUNG":"Oertzenhof","STELLE_ART":"Bf","KUERZEL":"WOE","GK_R_DGN":3803321.201,"GK_H_DGN":5941572.053}},{"type":"Feature","geometry":{"type":"Point","coordinates":[13.63549264,53.50687185]},"properties":{"STRECKE_NR":1122,"RICHTUNG":0,"KM_I":122720090,"KM_L":"227,2 + 90","BEZEICHNUNG":"Kreckow","STELLE_ART":"Bf a.B.","KUERZEL":"WKRE","GK_R_DGN":3807533.272,"GK_H_DGN":5940597.67}},{"type":"Feature","geometry":{"type":"Point","coordinates":[13.65106782,53.50609721]},"properties":{"STRECKE_NR":1122,"RICHTUNG":0,"KM_I":122830050,"KM_L":"228,3 + 50","BEZEICHNUNG":"Groá Daberkow","STELLE_ART":"Hp a.B.","KUERZEL":"WGDW","GK_R_DGN":3808571.291,"GK_H_DGN":5940578.949}},{"type":"Feature","geometry":{"type":"Point","coordinates":[13.68453102,53.51790389]},"properties":{"STRECKE_NR":1122,"RICHTUNG":0,"KM_I":123090070,"KM_L":"230,9 + 70","BEZEICHNUNG":"Lauenhagen","STELLE_ART":"Bf a.B.","KUERZEL":"WLAH","GK_R_DGN":3810702.898,"GK_H_DGN":5942037.286}},{"type":"Feature","geometry":{"type":"Point","coordinates":[10.65504652,53.85559344]},"properties":{"STRECKE_NR":1130,"RICHTUNG":0,"KM_I":100180000,"KM_L":"1,8 + 0","BEZEICHNUNG":"L\x81beck Hgbf","STELLE_ART":"Bf","KUERZEL":"ALR","GK_R_DGN":3608977.041,"GK_H_DGN":5970671.85}},{"type":"Feature","geometry":{"type":"Point","coordinates":[10.69712707,53.84243299]},"properties":{"STRECKE_NR":1131,"RICHTUNG":0,"KM_I":100430048,"KM_L":"4,3 + 48","BEZEICHNUNG":"Strecknitz","STELLE_ART":"Abzw","KUERZEL":"ASTR","GK_R_DGN":3611780.712,"GK_H_DGN":5969272.689}},{"type":"Feature","geometry":{"type":"Point","coordinates":[10.74416736,53.85309253]},"properties":{"STRECKE_NR":1131,"RICHTUNG":0,"KM_I":100840095,"KM_L":"8,4 + 95","BEZEICHNUNG":"Brandenbaum","STELLE_ART":"Abzw","KUERZEL":"ABRM","GK_R_DGN":3614847.444,"GK_H_DGN":5970534.036}},{"type":"Feature","geometry":{"type":"Point","coordinates":[10.77219748,53.87767824]},"properties":{"STRECKE_NR":1131,"RICHTUNG":0,"KM_I":101230000,"KM_L":"12,3 + 0","BEZEICHNUNG":"L\x81beck Schlutuper Tannen","STELLE_ART":"Anst","KUERZEL":"ALRT","GK_R_DGN":3616623.361,"GK_H_DGN":5973315.789}},{"type":"Feature","geometry":{"type":"Point","coordinates":[10.79529645,53.88581594]},"properties":{"STRECKE_NR":1131,"RICHTUNG":0,"KM_I":101400067,"KM_L":"14,0 + 67","BEZEICHNUNG":"L\x81beck-Schlutup","STELLE_ART":"Bf","KUERZEL":"ALSC","GK_R_DGN":3618119.368,"GK_H_DGN":5974259.608}},{"type":"Feature","geometry":{"type":"Point","coordinates":[10.41989698,53.24975585]},"properties":{"STRECKE_NR":1150,"RICHTUNG":0,"KM_I":113150071,"KM_L":"131,5 + 71","BEZEICHNUNG":"L\x81neburg","STELLE_ART":"Bf","KUERZEL":"ALBG","GK_R_DGN":3594849.705,"GK_H_DGN":5902915.249}},{"type":"Feature","geometry":{"type":"Point","coordinates":[10.45432227,53.28245086]},"properties":{"STRECKE_NR":1150,"RICHTUNG":0,"KM_I":113590026,"KM_L":"135,9 + 26","BEZEICHNUNG":"Adendorf","STELLE_ART":"Bf","KUERZEL":"AADF","GK_R_DGN":3597073.318,"GK_H_DGN":5906599.754}},{"type":"Feature","geometry":{"type":"Point","coordinates":[10.53712459,53.33702445]},"properties":{"STRECKE_NR":1150,"RICHTUNG":0,"KM_I":114410040,"KM_L":"144,1 + 40","BEZEICHNUNG":"Echem","STELLE_ART":"Hp","KUERZEL":"AECH","GK_R_DGN":3602464.845,"GK_H_DGN":5912788.293}},{"type":"Feature","geometry":{"type":"Point","coordinates":[10.56733093,53.36938795]},"properties":{"STRECKE_NR":1150,"RICHTUNG":0,"KM_I":114850040,"KM_L":"148,5 + 40","BEZEICHNUNG":"Lauenburg (Elbe)","STELLE_ART":"Bf","KUERZEL":"ALAU","GK_R_DGN":3604397.701,"GK_H_DGN":5916433.449}},{"type":"Feature","geometry":{"type":"Point","coordinates":[10.60995936,53.42762954]},"properties":{"STRECKE_NR":1150,"RICHTUNG":0,"KM_I":115580098,"KM_L":"155,8 + 98","BEZEICHNUNG":"Dalldorf","STELLE_ART":"Bf","KUERZEL":"ADA","GK_R_DGN":3607088.598,"GK_H_DGN":5922977.749}},{"type":"Feature","geometry":{"type":"Point","coordinates":[10.62263059,53.47518977]},"properties":{"STRECKE_NR":1150,"RICHTUNG":0,"KM_I":116130038,"KM_L":"161,3 + 38","BEZEICHNUNG":"B\x81chen","STELLE_ART":"Bf","KUERZEL":"ABCH","GK_R_DGN":3607810.332,"GK_H_DGN":5928289.395}},{"type":"Feature","geometry":{"type":"Point","coordinates":[11.1182565,53.10503675]},"properties":{"STRECKE_NR":1151,"RICHTUNG":0,"KM_I":117560020,"KM_L":"175,6 + 20","BEZEICHNUNG":"Dannenberg Ost","STELLE_ART":"Bf","KUERZEL":"ADB","GK_R_DGN":3641934.768,"GK_H_DGN":5887966.169}},{"type":"Feature","geometry":{"type":"Point","coordinates":[11.03830796,53.13922757]},"properties":{"STRECKE_NR":1151,"RICHTUNG":0,"KM_I":118250013,"KM_L":"182,5 + 13","BEZEICHNUNG":"Hitzacker","STELLE_ART":"Hp Bk","KUERZEL":"AHZ","GK_R_DGN":3636472.981,"GK_H_DGN":5891615.154}},{"type":"Feature","geometry":{"type":"Point","coordinates":[10.91266761,53.16918119]},"properties":{"STRECKE_NR":1151,"RICHTUNG":0,"KM_I":119200053,"KM_L":"192,0 + 53","BEZEICHNUNG":"Leitstade","STELLE_ART":"Hp","KUERZEL":"ALE","GK_R_DGN":3627977.366,"GK_H_DGN":5894716.128}},{"type":"Feature","geometry":{"type":"Point","coordinates":[10.85182986,53.16787917]},"properties":{"STRECKE_NR":1151,"RICHTUNG":0,"KM_I":119620050,"KM_L":"196,2 + 50","BEZEICHNUNG":"G”hrde","STELLE_ART":"Hp","KUERZEL":"AGH","GK_R_DGN":3623913.259,"GK_H_DGN":5894464.245}},{"type":"Feature","geometry":{"type":"Point","coordinates":[10.76052883,53.16376322]},"properties":{"STRECKE_NR":1151,"RICHTUNG":0,"KM_I":120240047,"KM_L":"202,4 + 47","BEZEICHNUNG":"Neetzendorf","STELLE_ART":"Hp","KUERZEL":"ANEZ","GK_R_DGN":3617819.515,"GK_H_DGN":5893852.153}},{"type":"Feature","geometry":{"type":"Point","coordinates":[10.70872333,53.16934613]},"properties":{"STRECKE_NR":1151,"RICHTUNG":0,"KM_I":120590064,"KM_L":"205,9 + 64","BEZEICHNUNG":"Dahlenburg","STELLE_ART":"Bf","KUERZEL":"ADL","GK_R_DGN":3614340.242,"GK_H_DGN":5894389.418}},{"type":"Feature","geometry":{"type":"Point","coordinates":[10.62946935,53.18752848]},"properties":{"STRECKE_NR":1151,"RICHTUNG":0,"KM_I":121170091,"KM_L":"211,7 + 91","BEZEICHNUNG":"Bavendorf","STELLE_ART":"Hp","KUERZEL":"ABF","GK_R_DGN":3608994.777,"GK_H_DGN":5896289.081}},{"type":"Feature","geometry":{"type":"Point","coordinates":[10.55558653,53.19914297]},"properties":{"STRECKE_NR":1151,"RICHTUNG":0,"KM_I":121690011,"KM_L":"216,9 + 11","BEZEICHNUNG":"Vastorf","STELLE_ART":"Hp","KUERZEL":"AVF","GK_R_DGN":3604028.468,"GK_H_DGN":5897471.598}},{"type":"Feature","geometry":{"type":"Point","coordinates":[10.46262792,53.21763697]},"properties":{"STRECKE_NR":1151,"RICHTUNG":0,"KM_I":122360080,"KM_L":"223,6 + 80","BEZEICHNUNG":"Wendisch Evern","STELLE_ART":"Hp","KUERZEL":"AWE","GK_R_DGN":3597774.797,"GK_H_DGN":5899398.562}},{"type":"Feature","geometry":{"type":"Point","coordinates":[10.37117488,53.29065116]},"properties":{"STRECKE_NR":1153,"RICHTUNG":0,"KM_I":113740088,"KM_L":"137,4 + 88","BEZEICHNUNG":"Bardowick Hp","STELLE_ART":"Hp","KUERZEL":"ABAW","GK_R_DGN":3591510.53,"GK_H_DGN":5907402.673}},{"type":"Feature","geometry":{"type":"Point","coordinates":[10.29123851,53.31729177]},"properties":{"STRECKE_NR":1153,"RICHTUNG":0,"KM_I":114350090,"KM_L":"143,5 + 90","BEZEICHNUNG":"Radbruch","STELLE_ART":"Hp","KUERZEL":"ARH","GK_R_DGN":3586126.79,"GK_H_DGN":5910268.028}},{"type":"Feature","geometry":{"type":"Point","coordinates":[10.20702873,53.35398229]},"properties":{"STRECKE_NR":1153,"RICHTUNG":0,"KM_I":115050055,"KM_L":"150,5 + 55","BEZEICHNUNG":"Winsen (Luhe)","STELLE_ART":"Bf","KUERZEL":"AWI","GK_R_DGN":3580446.114,"GK_H_DGN":5914252.999}},{"type":"Feature","geometry":{"type":"Point","coordinates":[10.14559143,53.36859425]},"properties":{"STRECKE_NR":1153,"RICHTUNG":0,"KM_I":115490064,"KM_L":"154,9 + 64","BEZEICHNUNG":"Ashausen","STELLE_ART":"Hp","KUERZEL":"AASN","GK_R_DGN":3576329.375,"GK_H_DGN":5915811.713}},{"type":"Feature","geometry":{"type":"Point","coordinates":[8.83487386,54.7895483]},"properties":{"STRECKE_NR":1201,"RICHTUNG":0,"KM_I":116200004,"KM_L":"162,0 + 4","BEZEICHNUNG":"Nieb\x81ll","STELLE_ART":"Bf","KUERZEL":"ANB","GK_R_DGN":3489453.753,"GK_H_DGN":6073372.887}},{"type":"Feature","geometry":{"type":"Point","coordinates":[8.83470861,54.79237417]},"properties":{"STRECKE_NR":1201,"RICHTUNG":0,"KM_I":116230019,"KM_L":"162,3 + 19","BEZEICHNUNG":"Nieb\x81ll DB-Grenze","STELLE_ART":"Gp","KUERZEL":"ANBG","GK_R_DGN":3489443.864,"GK_H_DGN":6073687.485}},{"type":"Feature","geometry":{"type":"Point","coordinates":[9.06388373,54.43560289]},"properties":{"STRECKE_NR":1204,"RICHTUNG":0,"KM_I":100460034,"KM_L":"4,6 + 34","BEZEICHNUNG":"H”rn","STELLE_ART":"Abzw","KUERZEL":"AHOE","GK_R_DGN":3504221.367,"GK_H_DGN":6033962.573}},{"type":"Feature","geometry":{"type":"Point","coordinates":[8.99802022,54.3857232]},"properties":{"STRECKE_NR":1204,"RICHTUNG":0,"KM_I":101180031,"KM_L":"11,8 + 31","BEZEICHNUNG":"Witzwort","STELLE_ART":"Hp","KUERZEL":"AWRT","GK_R_DGN":3499947.402,"GK_H_DGN":6028408.487}},{"type":"Feature","geometry":{"type":"Point","coordinates":[8.96238101,54.36187398]},"properties":{"STRECKE_NR":1204,"RICHTUNG":0,"KM_I":101530054,"KM_L":"15,3 + 54","BEZEICHNUNG":"Harblek","STELLE_ART":"Hp","KUERZEL":"AHA","GK_R_DGN":3497630.589,"GK_H_DGN":6025754.45}},{"type":"Feature","geometry":{"type":"Point","coordinates":[8.93747416,54.31407293]},"properties":{"STRECKE_NR":1204,"RICHTUNG":0,"KM_I":102110056,"KM_L":"21,1 + 56","BEZEICHNUNG":"T”nning","STELLE_ART":"Bf","KUERZEL":"ATG","GK_R_DGN":3496006.793,"GK_H_DGN":6020434.834}},{"type":"Feature","geometry":{"type":"Point","coordinates":[8.87171991,54.32610225]},"properties":{"STRECKE_NR":1205,"RICHTUNG":0,"KM_I":102550051,"KM_L":"25,5 + 51","BEZEICHNUNG":"Kating","STELLE_ART":"Hp","KUERZEL":"AKTO","GK_R_DGN":3491729.891,"GK_H_DGN":6021779.608}},{"type":"Feature","geometry":{"type":"Point","coordinates":[8.83019384,54.33412955]},"properties":{"STRECKE_NR":1205,"RICHTUNG":0,"KM_I":102840043,"KM_L":"28,4 + 43","BEZEICHNUNG":"Katharinenheerd","STELLE_ART":"Hp","KUERZEL":"AKAD","GK_R_DGN":3489030.284,"GK_H_DGN":6022678.839}},{"type":"Feature","geometry":{"type":"Point","coordinates":[8.7843955,54.32711528]},"properties":{"STRECKE_NR":1205,"RICHTUNG":0,"KM_I":103150026,"KM_L":"31,5 + 26","BEZEICHNUNG":"Garding","STELLE_ART":"Hp","KUERZEL":"AGD","GK_R_DGN":3486048.76,"GK_H_DGN":6021906.22}},{"type":"Feature","geometry":{"type":"Point","coordinates":[8.75859138,54.32571137]},"properties":{"STRECKE_NR":1205,"RICHTUNG":0,"KM_I":103320024,"KM_L":"33,2 + 24","BEZEICHNUNG":"Sandwehle","STELLE_ART":"Hp","KUERZEL":"ASDW","GK_R_DGN":3484369.408,"GK_H_DGN":6021755.389}},{"type":"Feature","geometry":{"type":"Point","coordinates":[8.70918532,54.32281355]},"properties":{"STRECKE_NR":1205,"RICHTUNG":0,"KM_I":103640064,"KM_L":"36,4 + 64","BEZEICHNUNG":"Tating","STELLE_ART":"Hp","KUERZEL":"ATAT","GK_R_DGN":3481153.611,"GK_H_DGN":6021444.961}},{"type":"Feature","geometry":{"type":"Point","coordinates":[8.64810373,54.30502416]},"properties":{"STRECKE_NR":1205,"RICHTUNG":0,"KM_I":104090095,"KM_L":"40,9 + 95","BEZEICHNUNG":"Bad St Peter S\x81d","STELLE_ART":"Hp","KUERZEL":"APSD","GK_R_DGN":3477169.357,"GK_H_DGN":6019482.941}},{"type":"Feature","geometry":{"type":"Point","coordinates":[8.6143421,54.3174465]},"properties":{"STRECKE_NR":1205,"RICHTUNG":0,"KM_I":104360037,"KM_L":"43,6 + 37","BEZEICHNUNG":"Bad St Peter-Ording","STELLE_ART":"Hp","KUERZEL":"APO","GK_R_DGN":3474979.215,"GK_H_DGN":6020877.151}},{"type":"Feature","geometry":{"type":"Point","coordinates":[9.01903867,54.21944631]},"properties":{"STRECKE_NR":1206,"RICHTUNG":0,"KM_I":100810067,"KM_L":"8,1 + 67","BEZEICHNUNG":"Tiebensee","STELLE_ART":"Hp","KUERZEL":"ATB","GK_R_DGN":3501317.917,"GK_H_DGN":6009900.373}},{"type":"Feature","geometry":{"type":"Point","coordinates":[8.96315211,54.21212645]},"properties":{"STRECKE_NR":1206,"RICHTUNG":0,"KM_I":101190003,"KM_L":"11,9 + 3","BEZEICHNUNG":"Jarrenwisch","STELLE_ART":"Hp","KUERZEL":"AJHH","GK_R_DGN":3497672.01,"GK_H_DGN":6009086.071}},{"type":"Feature","geometry":{"type":"Point","coordinates":[8.9331047,54.20722649]},"properties":{"STRECKE_NR":1206,"RICHTUNG":0,"KM_I":101390049,"KM_L":"13,9 + 49","BEZEICHNUNG":"Wesselburen","STELLE_ART":"Hp","KUERZEL":"AWBU","GK_R_DGN":3495711.154,"GK_H_DGN":6008542.104}},{"type":"Feature","geometry":{"type":"Point","coordinates":[8.91144323,54.19867577]},"properties":{"STRECKE_NR":1206,"RICHTUNG":0,"KM_I":101560071,"KM_L":"15,6 + 71","BEZEICHNUNG":"S\x81derdeich","STELLE_ART":"Hp","KUERZEL":"ASDD","GK_R_DGN":3494296.566,"GK_H_DGN":6007591.895}},{"type":"Feature","geometry":{"type":"Point","coordinates":[8.90595038,54.18078679]},"properties":{"STRECKE_NR":1206,"RICHTUNG":0,"KM_I":101770068,"KM_L":"17,7 + 68","BEZEICHNUNG":"Reinsb\x81ttel","STELLE_ART":"Hp","KUERZEL":"ARE","GK_R_DGN":3493935.437,"GK_H_DGN":6005601.175}},{"type":"Feature","geometry":{"type":"Point","coordinates":[8.86704698,54.13384728]},"properties":{"STRECKE_NR":1206,"RICHTUNG":0,"KM_I":102380041,"KM_L":"23,8 + 41","BEZEICHNUNG":"B\x81sum","STELLE_ART":"Bf","KUERZEL":"ABSM","GK_R_DGN":3491385.571,"GK_H_DGN":6000380.549}},{"type":"Feature","geometry":{"type":"Point","coordinates":[9.65876978,53.75520877]},"properties":{"STRECKE_NR":1210,"RICHTUNG":0,"KM_I":103060098,"KM_L":"30,6 + 98","BEZEICHNUNG":"Elmshorn","STELLE_ART":"Bf","KUERZEL":"AEL","GK_R_DGN":3543527.876,"GK_H_DGN":5958430.116}},{"type":"Feature","geometry":{"type":"Point","coordinates":[9.48410049,53.78357817]},"properties":{"STRECKE_NR":1210,"RICHTUNG":0,"KM_I":104340091,"KM_L":"43,4 + 91","BEZEICHNUNG":"Herzhorn","STELLE_ART":"Hp","KUERZEL":"AHZH","GK_R_DGN":3531985.426,"GK_H_DGN":5961494.924}},{"type":"Feature","geometry":{"type":"Point","coordinates":[9.42847031,53.78844865]},"properties":{"STRECKE_NR":1210,"RICHTUNG":0,"KM_I":104740002,"KM_L":"47,4 + 2","BEZEICHNUNG":"Gl\x81ckstadt","STELLE_ART":"Bf","KUERZEL":"AGST","GK_R_DGN":3528315.323,"GK_H_DGN":5962013.445}},{"type":"Feature","geometry":{"type":"Point","coordinates":[9.4816861,53.83403439]},"properties":{"STRECKE_NR":1210,"RICHTUNG":0,"KM_I":105420027,"KM_L":"54,2 + 27","BEZEICHNUNG":"Krempe","STELLE_ART":"Hp","KUERZEL":"AKM","GK_R_DGN":3531788.179,"GK_H_DGN":5967109.601}},{"type":"Feature","geometry":{"type":"Point","coordinates":[9.48019596,53.8815335]},"properties":{"STRECKE_NR":1210,"RICHTUNG":0,"KM_I":105950076,"KM_L":"59,5 + 76","BEZEICHNUNG":"Kremperheide","STELLE_ART":"Hp","KUERZEL":"AKHD","GK_R_DGN":3531654.293,"GK_H_DGN":5972395.613}},{"type":"Feature","geometry":{"type":"Point","coordinates":[9.50393069,53.9098114]},"properties":{"STRECKE_NR":1210,"RICHTUNG":0,"KM_I":106320026,"KM_L":"63,2 + 26","BEZEICHNUNG":"Alsen Abzw","STELLE_ART":"Abzw","KUERZEL":"AALA","GK_R_DGN":3533192.739,"GK_H_DGN":5975553.804}},{"type":"Feature","geometry":{"type":"Point","coordinates":[9.51015687,53.92396475]},"properties":{"STRECKE_NR":1210,"RICHTUNG":0,"KM_I":106490021,"KM_L":"64,9 + 21","BEZEICHNUNG":"Itzehoe","STELLE_ART":"Bf","KUERZEL":"AIZ","GK_R_DGN":3533590.564,"GK_H_DGN":5977132.019}},{"type":"Feature","geometry":{"type":"Point","coordinates":[9.38301407,53.9262949]},"properties":{"STRECKE_NR":1210,"RICHTUNG":0,"KM_I":107420060,"KM_L":"74,2 + 60","BEZEICHNUNG":"Wilster","STELLE_ART":"Bf","KUERZEL":"AWIR","GK_R_DGN":3525236.615,"GK_H_DGN":5977338.749}},{"type":"Feature","geometry":{"type":"Point","coordinates":[9.32130283,54.0140134]},"properties":{"STRECKE_NR":1210,"RICHTUNG":0,"KM_I":108640042,"KM_L":"86,4 + 42","BEZEICHNUNG":"Hochdonn","STELLE_ART":"šst","KUERZEL":"AHOD","GK_R_DGN":3521138.475,"GK_H_DGN":5987081.966}},{"type":"Feature","geometry":{"type":"Point","coordinates":[9.24917932,54.00795554]},"properties":{"STRECKE_NR":1210,"RICHTUNG":0,"KM_I":109140018,"KM_L":"91,4 + 18","BEZEICHNUNG":"Burg (Dithm)","STELLE_ART":"Hp","KUERZEL":"ABR","GK_R_DGN":3516412.926,"GK_H_DGN":5986388.654}},{"type":"Feature","geometry":{"type":"Point","coordinates":[9.11762651,53.99003479]},"properties":{"STRECKE_NR":1210,"RICHTUNG":0,"KM_I":110110024,"KM_L":"101,1 + 24","BEZEICHNUNG":"St Michaelisdonn","STELLE_ART":"Bf","KUERZEL":"ASD","GK_R_DGN":3507791.27,"GK_H_DGN":5984371.659}},{"type":"Feature","geometry":{"type":"Point","coordinates":[9.07917658,54.08078949]},"properties":{"STRECKE_NR":1210,"RICHTUNG":0,"KM_I":111160085,"KM_L":"111,6 + 85","BEZEICHNUNG":"Meldorf","STELLE_ART":"šst","KUERZEL":"AMFU","GK_R_DGN":3505258.001,"GK_H_DGN":5994469.608}},{"type":"Feature","geometry":{"type":"Point","coordinates":[9.07995941,54.08751188]},"properties":{"STRECKE_NR":1210,"RICHTUNG":0,"KM_I":111240035,"KM_L":"112,4 + 35","BEZEICHNUNG":"Meldorf Hp","STELLE_ART":"Hp","KUERZEL":"AMF","GK_R_DGN":3505308.39,"GK_H_DGN":5995217.907}},{"type":"Feature","geometry":{"type":"Point","coordinates":[9.08812089,54.15174958]},"properties":{"STRECKE_NR":1210,"RICHTUNG":0,"KM_I":111960006,"KM_L":"119,6 + 6","BEZEICHNUNG":"Hemmingstedt","STELLE_ART":"Bf","KUERZEL":"AHE","GK_R_DGN":3505833.549,"GK_H_DGN":6002368.619}},{"type":"Feature","geometry":{"type":"Point","coordinates":[9.10051503,54.19423616]},"properties":{"STRECKE_NR":1210,"RICHTUNG":0,"KM_I":112440075,"KM_L":"124,4 + 75","BEZEICHNUNG":"Heide (Holst)","STELLE_ART":"Bf","KUERZEL":"AHI","GK_R_DGN":3506636.614,"GK_H_DGN":6007098.776}},{"type":"Feature","geometry":{"type":"Point","coordinates":[9.03069343,54.33113847]},"properties":{"STRECKE_NR":1210,"RICHTUNG":0,"KM_I":114070058,"KM_L":"140,7 + 58","BEZEICHNUNG":"Lunden","STELLE_ART":"Hp","KUERZEL":"ALU","GK_R_DGN":3502072.75,"GK_H_DGN":6022333.037}},{"type":"Feature","geometry":{"type":"Point","coordinates":[9.07041731,54.36177341]},"properties":{"STRECKE_NR":1210,"RICHTUNG":0,"KM_I":114510080,"KM_L":"145,1 + 80","BEZEICHNUNG":"Eiderbr\x81cke","STELLE_ART":"šst","KUERZEL":"AEBR","GK_R_DGN":3504653.536,"GK_H_DGN":6025744.889}},{"type":"Feature","geometry":{"type":"Point","coordinates":[9.07898045,54.37817191]},"properties":{"STRECKE_NR":1210,"RICHTUNG":0,"KM_I":114710013,"KM_L":"147,1 + 13","BEZEICHNUNG":"Friedrichstadt","STELLE_ART":"Hp","KUERZEL":"AFD","GK_R_DGN":3505208.142,"GK_H_DGN":6027570.815}},{"type":"Feature","geometry":{"type":"Point","coordinates":[9.06391346,54.43559721]},"properties":{"STRECKE_NR":1210,"RICHTUNG":0,"KM_I":115360029,"KM_L":"153,6 + 29","BEZEICHNUNG":"H”rn","STELLE_ART":"Abzw","KUERZEL":"AHOE","GK_R_DGN":3504223.297,"GK_H_DGN":6033961.942}},{"type":"Feature","geometry":{"type":"Point","coordinates":[9.05477845,54.47213021]},"properties":{"STRECKE_NR":1210,"RICHTUNG":0,"KM_I":115820061,"KM_L":"158,2 + 61","BEZEICHNUNG":"Husum","STELLE_ART":"Bf","KUERZEL":"AHM","GK_R_DGN":3503627.373,"GK_H_DGN":6038028.032}},{"type":"Feature","geometry":{"type":"Point","coordinates":[9.01935707,54.53404852]},"properties":{"STRECKE_NR":1210,"RICHTUNG":0,"KM_I":116640056,"KM_L":"166,4 + 56","BEZEICHNUNG":"Hattstedt","STELLE_ART":"šst","KUERZEL":"AHDT","GK_R_DGN":3501329.069,"GK_H_DGN":6044919.179}},{"type":"Feature","geometry":{"type":"Point","coordinates":[8.96990463,54.62142212]},"properties":{"STRECKE_NR":1210,"RICHTUNG":0,"KM_I":117670081,"KM_L":"176,7 + 81","BEZEICHNUNG":"Bredstedt","STELLE_ART":"Bf","KUERZEL":"ABST","GK_R_DGN":3498132.018,"GK_H_DGN":6054645.422}},{"type":"Feature","geometry":{"type":"Point","coordinates":[8.94606816,54.6865885]},"properties":{"STRECKE_NR":1210,"RICHTUNG":0,"KM_I":118420094,"KM_L":"184,2 + 94","BEZEICHNUNG":"Langenhorn (Schlesw)","STELLE_ART":"Hp Bk","KUERZEL":"ALG","GK_R_DGN":3496597.874,"GK_H_DGN":6061900.434}},{"type":"Feature","geometry":{"type":"Point","coordinates":[8.91804982,54.73741441]},"properties":{"STRECKE_NR":1210,"RICHTUNG":0,"KM_I":119020082,"KM_L":"190,2 + 82","BEZEICHNUNG":"Stedesand","STELLE_ART":"Bf","KUERZEL":"ASDS","GK_R_DGN":3494797.533,"GK_H_DGN":6067559.997}},{"type":"Feature","geometry":{"type":"Point","coordinates":[8.86999728,54.7577809]},"properties":{"STRECKE_NR":1210,"RICHTUNG":0,"KM_I":119410048,"KM_L":"194,1 + 48","BEZEICHNUNG":"Lindholm","STELLE_ART":"Bf","KUERZEL":"ALH","GK_R_DGN":3491706.624,"GK_H_DGN":6069831.83}},{"type":"Feature","geometry":{"type":"Point","coordinates":[8.8346124,54.78956726]},"properties":{"STRECKE_NR":1210,"RICHTUNG":0,"KM_I":119840050,"KM_L":"198,4 + 50","BEZEICHNUNG":"Nieb\x81ll","STELLE_ART":"Bf","KUERZEL":"ANB","GK_R_DGN":3489436.939,"GK_H_DGN":6073375.037}},{"type":"Feature","geometry":{"type":"Point","coordinates":[8.75308871,54.82203995]},"properties":{"STRECKE_NR":1210,"RICHTUNG":0,"KM_I":120500064,"KM_L":"205,0 + 64","BEZEICHNUNG":"Lehnshallig","STELLE_ART":"Bf","KUERZEL":"ALHG","GK_R_DGN":3484205.407,"GK_H_DGN":6077005.279}},{"type":"Feature","geometry":{"type":"Point","coordinates":[8.67678164,54.86182889]},"properties":{"STRECKE_NR":1210,"RICHTUNG":0,"KM_I":121160087,"KM_L":"211,6 + 87","BEZEICHNUNG":"Klanxb\x81ll","STELLE_ART":"Bf","KUERZEL":"AKX","GK_R_DGN":3479321.092,"GK_H_DGN":6081454.505}},{"type":"Feature","geometry":{"type":"Point","coordinates":[8.43242226,54.8722192]},"properties":{"STRECKE_NR":1210,"RICHTUNG":0,"KM_I":122870097,"KM_L":"228,7 + 97","BEZEICHNUNG":"Morsum (Sylt)","STELLE_ART":"Bf","KUERZEL":"AMM","GK_R_DGN":3463639.466,"GK_H_DGN":6082710.891}},{"type":"Feature","geometry":{"type":"Point","coordinates":[8.36888049,54.88879485]},"properties":{"STRECKE_NR":1210,"RICHTUNG":0,"KM_I":123330022,"KM_L":"233,3 + 22","BEZEICHNUNG":"Keitum","STELLE_ART":"Bf","KUERZEL":"AKI","GK_R_DGN":3459576.979,"GK_H_DGN":6084590.966}},{"type":"Feature","geometry":{"type":"Point","coordinates":[8.30987534,54.90763719]},"properties":{"STRECKE_NR":1210,"RICHTUNG":0,"KM_I":123760081,"KM_L":"237,6 + 81","BEZEICHNUNG":"Westerland (Sylt)","STELLE_ART":"Bf","KUERZEL":"AWLA","GK_R_DGN":3455811.339,"GK_H_DGN":6086724.177}},{"type":"Feature","geometry":{"type":"Point","coordinates":[9.38316972,53.92545676]},"properties":{"STRECKE_NR":1214,"RICHTUNG":0,"KM_I":100000030,"KM_L":"0,0 + 30","BEZEICHNUNG":"Wilster","STELLE_ART":"Bf","KUERZEL":"AWIR","GK_R_DGN":3525247.344,"GK_H_DGN":5977245.517}},{"type":"Feature","geometry":{"type":"Point","coordinates":[9.24960887,53.92065966]},"properties":{"STRECKE_NR":1214,"RICHTUNG":0,"KM_I":100880022,"KM_L":"8,8 + 22","BEZEICHNUNG":"St Margarethen (Holst)","STELLE_ART":"Anst","KUERZEL":"ASM","GK_R_DGN":3516475.319,"GK_H_DGN":5976672.426}},{"type":"Feature","geometry":{"type":"Point","coordinates":[9.21848542,53.92037599]},"properties":{"STRECKE_NR":1214,"RICHTUNG":0,"KM_I":101090023,"KM_L":"10,9 + 23","BEZEICHNUNG":"Kudensee","STELLE_ART":"Awanst","KUERZEL":"AKUD","GK_R_DGN":3514430.61,"GK_H_DGN":5976634.102}},{"type":"Feature","geometry":{"type":"Point","coordinates":[9.15973009,53.89836124]},"properties":{"STRECKE_NR":1214,"RICHTUNG":0,"KM_I":101560048,"KM_L":"15,6 + 48","BEZEICHNUNG":"Brunsb\x81ttel","STELLE_ART":"Bf","KUERZEL":"ABK","GK_R_DGN":3510575.883,"GK_H_DGN":5974173.506}},{"type":"Feature","geometry":{"type":"Point","coordinates":[9.11745913,53.98999437]},"properties":{"STRECKE_NR":1215,"RICHTUNG":0,"KM_I":100000027,"KM_L":"0,0 + 27","BEZEICHNUNG":"St Michaelisdonn","STELLE_ART":"Bf","KUERZEL":"ASD","GK_R_DGN":3507780.299,"GK_H_DGN":5984367.142}},{"type":"Feature","geometry":{"type":"Point","coordinates":[9.93459566,53.55257899]},"properties":{"STRECKE_NR":1220,"RICHTUNG":0,"KM_I":100070010,"KM_L":"0,7 + 10","BEZEICHNUNG":"Hamburg-Altona","STELLE_ART":"Bf","KUERZEL":"AA","GK_R_DGN":3562017.006,"GK_H_DGN":5936082.765}},{"type":"Feature","geometry":{"type":"Point","coordinates":[9.92422843,53.58169333]},"properties":{"STRECKE_NR":1220,"RICHTUNG":0,"KM_I":100410049,"KM_L":"4,1 + 49","BEZEICHNUNG":"Hamburg-Langenfelde Bbf","STELLE_ART":"Bf","KUERZEL":"ALA","GK_R_DGN":3561287.872,"GK_H_DGN":5939313.993}},{"type":"Feature","geometry":{"type":"Point","coordinates":[9.92037053,53.5867292]},"properties":{"STRECKE_NR":1220,"RICHTUNG":0,"KM_I":100470065,"KM_L":"4,7 + 65","BEZEICHNUNG":"Hamburg-Langenfelde Abzw","STELLE_ART":"Bft Abzw","KUERZEL":"ALAA","GK_R_DGN":3561025.123,"GK_H_DGN":5939871.137}},{"type":"Feature","geometry":{"type":"Point","coordinates":[9.79730264,53.65527933]},"properties":{"STRECKE_NR":1220,"RICHTUNG":0,"KM_I":101590053,"KM_L":"15,9 + 53","BEZEICHNUNG":"Pinneberg","STELLE_ART":"Bf","KUERZEL":"AP","GK_R_DGN":3552789.963,"GK_H_DGN":5947402.046}},{"type":"Feature","geometry":{"type":"Point","coordinates":[9.76044113,53.67516515]},"properties":{"STRECKE_NR":1220,"RICHTUNG":0,"KM_I":101920062,"KM_L":"19,2 + 62","BEZEICHNUNG":"Prisdorf","STELLE_ART":"Hp","KUERZEL":"APD","GK_R_DGN":3550329.231,"GK_H_DGN":5949588.557}},{"type":"Feature","geometry":{"type":"Point","coordinates":[9.71487246,53.69733908]},"properties":{"STRECKE_NR":1220,"RICHTUNG":0,"KM_I":102310073,"KM_L":"23,1 + 73","BEZEICHNUNG":"Tornesch","STELLE_ART":"Bf","KUERZEL":"ATM","GK_R_DGN":3547293.093,"GK_H_DGN":5952025.188}},{"type":"Feature","geometry":{"type":"Point","coordinates":[9.65898822,53.75521139]},"properties":{"STRECKE_NR":1220,"RICHTUNG":0,"KM_I":103060097,"KM_L":"30,6 + 97","BEZEICHNUNG":"Elmshorn","STELLE_ART":"Bf","KUERZEL":"AEL","GK_R_DGN":3543542.281,"GK_H_DGN":5958430.541}},{"type":"Feature","geometry":{"type":"Point","coordinates":[9.64513001,53.80430998]},"properties":{"STRECKE_NR":1220,"RICHTUNG":0,"KM_I":103620036,"KM_L":"36,2 + 36","BEZEICHNUNG":"Horst in Holstein","STELLE_ART":"Hp","KUERZEL":"AHOT","GK_R_DGN":3542578.576,"GK_H_DGN":5963886.733}},{"type":"Feature","geometry":{"type":"Point","coordinates":[9.68068515,53.85261785]},"properties":{"STRECKE_NR":1220,"RICHTUNG":0,"KM_I":104230077,"KM_L":"42,3 + 77","BEZEICHNUNG":"Dauenhof","STELLE_ART":"Bf","KUERZEL":"ADH","GK_R_DGN":3544869.426,"GK_H_DGN":5969285.215}},{"type":"Feature","geometry":{"type":"Point","coordinates":[9.74763578,53.93188878]},"properties":{"STRECKE_NR":1220,"RICHTUNG":0,"KM_I":105220028,"KM_L":"52,2 + 28","BEZEICHNUNG":"Wrist","STELLE_ART":"Bf","KUERZEL":"AWST","GK_R_DGN":3549182.111,"GK_H_DGN":5978152.376}},{"type":"Feature","geometry":{"type":"Point","coordinates":[9.82318083,53.98984351]},"properties":{"STRECKE_NR":1220,"RICHTUNG":0,"KM_I":106050010,"KM_L":"60,5 + 10","BEZEICHNUNG":"Brokstedt","STELLE_ART":"Bf","KUERZEL":"ABRS","GK_R_DGN":3554069.004,"GK_H_DGN":5984657.728}},{"type":"Feature","geometry":{"type":"Point","coordinates":[9.98003369,54.07632917]},"properties":{"STRECKE_NR":1220,"RICHTUNG":0,"KM_I":107460088,"KM_L":"74,6 + 88","BEZEICHNUNG":"Neum\x81nster","STELLE_ART":"Bf","KUERZEL":"AN","GK_R_DGN":3564223.529,"GK_H_DGN":5994414.547}},{"type":"Feature","geometry":{"type":"Point","coordinates":[9.99782859,54.12937311]},"properties":{"STRECKE_NR":1220,"RICHTUNG":0,"KM_I":108070011,"KM_L":"80,7 + 11","BEZEICHNUNG":"Einfeld","STELLE_ART":"Hp","KUERZEL":"AEF","GK_R_DGN":3565304.947,"GK_H_DGN":6000334.673}},{"type":"Feature","geometry":{"type":"Point","coordinates":[10.0437255,54.17441303]},"properties":{"STRECKE_NR":1220,"RICHTUNG":0,"KM_I":108660031,"KM_L":"86,6 + 31","BEZEICHNUNG":"Bordesholm","STELLE_ART":"Bf","KUERZEL":"ABRD","GK_R_DGN":3568231.136,"GK_H_DGN":6005391}},{"type":"Feature","geometry":{"type":"Point","coordinates":[10.06312432,54.24369427]},"properties":{"STRECKE_NR":1220,"RICHTUNG":0,"KM_I":109530011,"KM_L":"95,3 + 11","BEZEICHNUNG":"Flintbek","STELLE_ART":"Hp","KUERZEL":"AFT","GK_R_DGN":3569381.754,"GK_H_DGN":6013121.041}},{"type":"Feature","geometry":{"type":"Point","coordinates":[10.10871756,54.28469025]},"properties":{"STRECKE_NR":1220,"RICHTUNG":0,"KM_I":110100000,"KM_L":"101,0 + 0","BEZEICHNUNG":"Meimersdorf","STELLE_ART":"Bf Abzw","KUERZEL":"AMR","GK_R_DGN":3572282.208,"GK_H_DGN":6017729.723}},{"type":"Feature","geometry":{"type":"Point","coordinates":[10.1318181,54.31496049]},"properties":{"STRECKE_NR":1220,"RICHTUNG":0,"KM_I":110550087,"KM_L":"105,5 + 87","BEZEICHNUNG":"Kiel Hbf","STELLE_ART":"Bf","KUERZEL":"AK","GK_R_DGN":3573732.533,"GK_H_DGN":6021122.778}},{"type":"Feature","geometry":{"type":"Point","coordinates":[9.91557208,53.56004304]},"properties":{"STRECKE_NR":1224,"RICHTUNG":0,"KM_I":100250033,"KM_L":"2,5 + 33","BEZEICHNUNG":"Hamburg-Bahrenfeld Abzw","STELLE_ART":"Abzw","KUERZEL":"ABAH","GK_R_DGN":3560745.557,"GK_H_DGN":5936897.077}},{"type":"Feature","geometry":{"type":"Point","coordinates":[9.90988399,53.56006244]},"properties":{"STRECKE_NR":1224,"RICHTUNG":0,"KM_I":100290010,"KM_L":"2,9 + 10","BEZEICHNUNG":"Hamburg-Bahrenfeld","STELLE_ART":"Hp","KUERZEL":"ABAF","GK_R_DGN":3560368.623,"GK_H_DGN":5936894.405}},{"type":"Feature","geometry":{"type":"Point","coordinates":[9.88681817,53.55927977]},"properties":{"STRECKE_NR":1224,"RICHTUNG":0,"KM_I":100440041,"KM_L":"4,4 + 41","BEZEICHNUNG":"Hamburg-Othmarschen","STELLE_ART":"Bf","KUERZEL":"AOH","GK_R_DGN":3558841.309,"GK_H_DGN":5936788.02}},{"type":"Feature","geometry":{"type":"Point","coordinates":[9.86053143,53.55819785]},"properties":{"STRECKE_NR":1224,"RICHTUNG":0,"KM_I":100610088,"KM_L":"6,1 + 88","BEZEICHNUNG":"Hamburg-Klein Flottbek","STELLE_ART":"Bf","KUERZEL":"AFB","GK_R_DGN":3557100.904,"GK_H_DGN":5936646.24}},{"type":"Feature","geometry":{"type":"Point","coordinates":[9.84213378,53.56133073]},"properties":{"STRECKE_NR":1224,"RICHTUNG":0,"KM_I":100750020,"KM_L":"7,5 + 20","BEZEICHNUNG":"Hamburg Hochkamp","STELLE_ART":"Hp Bk","KUERZEL":"AHPS","GK_R_DGN":3555877.649,"GK_H_DGN":5936980.333}},{"type":"Feature","geometry":{"type":"Point","coordinates":[9.81372857,53.56413053]},"properties":{"STRECKE_NR":1224,"RICHTUNG":0,"KM_I":100950055,"KM_L":"9,5 + 55","BEZEICHNUNG":"Hamburg-Blankenese","STELLE_ART":"Bf","KUERZEL":"AB","GK_R_DGN":3553991.935,"GK_H_DGN":5937270.049}},{"type":"Feature","geometry":{"type":"Point","coordinates":[9.94808345,53.56219615]},"properties":{"STRECKE_NR":1225,"RICHTUNG":0,"KM_I":100000058,"KM_L":"0,0 + 58","BEZEICHNUNG":"Hamburg Holstenstraáe D","STELLE_ART":"Abzw","KUERZEL":"AHSO","GK_R_DGN":3562896.646,"GK_H_DGN":5937164.889}},{"type":"Feature","geometry":{"type":"Point","coordinates":[9.94091407,53.56323689]},"properties":{"STRECKE_NR":1225,"RICHTUNG":0,"KM_I":100050048,"KM_L":"0,5 + 48","BEZEICHNUNG":"Hamburg Holstenstraáe H","STELLE_ART":"Abzw","KUERZEL":"AHSH","GK_R_DGN":3562420.08,"GK_H_DGN":5937274.415}},{"type":"Feature","geometry":{"type":"Point","coordinates":[9.93416088,53.5690245]},"properties":{"STRECKE_NR":1225,"RICHTUNG":0,"KM_I":100140020,"KM_L":"1,4 + 20","BEZEICHNUNG":"Hamburg Diebsteich","STELLE_ART":"Bf","KUERZEL":"ADT","GK_R_DGN":3561964.182,"GK_H_DGN":5937912.638}},{"type":"Feature","geometry":{"type":"Point","coordinates":[9.93085061,53.57967328]},"properties":{"STRECKE_NR":1225,"RICHTUNG":0,"KM_I":100260030,"KM_L":"2,6 + 30","BEZEICHNUNG":"Hamburg-Langenfelde (S-Bahn)","STELLE_ART":"Hp","KUERZEL":"ALST","GK_R_DGN":3561729.388,"GK_H_DGN":5939094.891}},{"type":"Feature","geometry":{"type":"Point","coordinates":[9.91825581,53.58971209]},"properties":{"STRECKE_NR":1225,"RICHTUNG":0,"KM_I":100400050,"KM_L":"4,0 + 50","BEZEICHNUNG":"Hamburg-Stellingen (S-Bahn)","STELLE_ART":"Hp","KUERZEL":"ASTS","GK_R_DGN":3560880.803,"GK_H_DGN":5940201.302}},{"type":"Feature","geometry":{"type":"Point","coordinates":[9.90597221,53.59631171]},"properties":{"STRECKE_NR":1225,"RICHTUNG":0,"KM_I":100620015,"KM_L":"6,2 + 15","BEZEICHNUNG":"Hamburg-Eidelstedt (S-Bahn)","STELLE_ART":"Bft","KUERZEL":"AEST","GK_R_DGN":3560058.083,"GK_H_DGN":5940925.37}},{"type":"Feature","geometry":{"type":"Point","coordinates":[9.89274671,53.60293984]},"properties":{"STRECKE_NR":1225,"RICHTUNG":0,"KM_I":100730060,"KM_L":"7,3 + 60","BEZEICHNUNG":"Hamburg Elbgaustraáe","STELLE_ART":"Bf","KUERZEL":"AEGS","GK_R_DGN":3559173.226,"GK_H_DGN":5941651.971}},{"type":"Feature","geometry":{"type":"Point","coordinates":[9.86729364,53.61607227]},"properties":{"STRECKE_NR":1225,"RICHTUNG":0,"KM_I":100950090,"KM_L":"9,5 + 90","BEZEICHNUNG":"Krupunder","STELLE_ART":"Hp","KUERZEL":"AKRS","GK_R_DGN":3557470.535,"GK_H_DGN":5943092.691}},{"type":"Feature","geometry":{"type":"Point","coordinates":[9.85364306,53.62304164]},"properties":{"STRECKE_NR":1225,"RICHTUNG":0,"KM_I":101070080,"KM_L":"10,7 + 80","BEZEICHNUNG":"Bickbargen","STELLE_ART":"šst","KUERZEL":"ABB","GK_R_DGN":3556557.902,"GK_H_DGN":5943857.414}},{"type":"Feature","geometry":{"type":"Point","coordinates":[9.8398458,53.63005118]},"properties":{"STRECKE_NR":1225,"RICHTUNG":0,"KM_I":101190080,"KM_L":"11,9 + 80","BEZEICHNUNG":"Halstenbek","STELLE_ART":"Hp","KUERZEL":"AHKS","GK_R_DGN":3555635.808,"GK_H_DGN":5944626.67}},{"type":"Feature","geometry":{"type":"Point","coordinates":[9.81363712,53.64452991]},"properties":{"STRECKE_NR":1225,"RICHTUNG":0,"KM_I":101430040,"KM_L":"14,3 + 40","BEZEICHNUNG":"Thesdorf","STELLE_ART":"Hp","KUERZEL":"ATHS","GK_R_DGN":3553883.586,"GK_H_DGN":5946217.924}},{"type":"Feature","geometry":{"type":"Point","coordinates":[9.79806961,53.65505359]},"properties":{"STRECKE_NR":1225,"RICHTUNG":0,"KM_I":101590000,"KM_L":"15,9 + 0","BEZEICHNUNG":"Pinneberg (S-Bahn)","STELLE_ART":"Bf","KUERZEL":"APS","GK_R_DGN":3552840.953,"GK_H_DGN":5947377.491}},{"type":"Feature","geometry":{"type":"Point","coordinates":[9.81505397,53.5761354]},"properties":{"STRECKE_NR":1226,"RICHTUNG":0,"KM_I":101120057,"KM_L":"11,2 + 57","BEZEICHNUNG":"Hamburg-Iserbrook","STELLE_ART":"Hp","KUERZEL":"AIS","GK_R_DGN":3554064.458,"GK_H_DGN":5938607.112}},{"type":"Feature","geometry":{"type":"Point","coordinates":[9.7969924,53.58117723]},"properties":{"STRECKE_NR":1226,"RICHTUNG":0,"KM_I":101260020,"KM_L":"12,6 + 20","BEZEICHNUNG":"Hamburg-S\x81lldorf","STELLE_ART":"Bf","KUERZEL":"ASDF","GK_R_DGN":3552861.818,"GK_H_DGN":5939154.691}},{"type":"Feature","geometry":{"type":"Point","coordinates":[9.76296505,53.58250171]},"properties":{"STRECKE_NR":1226,"RICHTUNG":0,"KM_I":101480095,"KM_L":"14,8 + 95","BEZEICHNUNG":"Hamburg-Rissen šst","STELLE_ART":"šst","KUERZEL":"ARIU","GK_R_DGN":3550606.605,"GK_H_DGN":5939277.408}},{"type":"Feature","geometry":{"type":"Point","coordinates":[9.75699105,53.58325317]},"properties":{"STRECKE_NR":1226,"RICHTUNG":0,"KM_I":101530000,"KM_L":"15,3 + 0","BEZEICHNUNG":"Hamburg-Rissen Hp","STELLE_ART":"Hp","KUERZEL":"ARI","GK_R_DGN":3550210.069,"GK_H_DGN":5939356.817}},{"type":"Feature","geometry":{"type":"Point","coordinates":[9.72396105,53.58514158]},"properties":{"STRECKE_NR":1226,"RICHTUNG":0,"KM_I":101750058,"KM_L":"17,5 + 58","BEZEICHNUNG":"Hamburg-Rissen ™lweiche (šst)","STELLE_ART":"šst","KUERZEL":"AROW","GK_R_DGN":3548020.454,"GK_H_DGN":5939544.234}},{"type":"Feature","geometry":{"type":"Point","coordinates":[9.70480757,53.58185629]},"properties":{"STRECKE_NR":1226,"RICHTUNG":0,"KM_I":101890059,"KM_L":"18,9 + 59","BEZEICHNUNG":"Wedel (Holst)","STELLE_ART":"Bf","KUERZEL":"AWL","GK_R_DGN":3546755.651,"GK_H_DGN":5939165.872}},{"type":"Feature","geometry":{"type":"Point","coordinates":[9.91557208,53.56004304]},"properties":{"STRECKE_NR":1230,"RICHTUNG":0,"KM_I":100030048,"KM_L":"0,3 + 48","BEZEICHNUNG":"Hamburg-Bahrenfeld Abzw","STELLE_ART":"Abzw","KUERZEL":"ABAH","GK_R_DGN":3560745.557,"GK_H_DGN":5936897.077}},{"type":"Feature","geometry":{"type":"Point","coordinates":[9.94175541,53.56298435]},"properties":{"STRECKE_NR":1232,"RICHTUNG":0,"KM_I":100140081,"KM_L":"1,4 + 81","BEZEICHNUNG":"Hamburg Rainweg","STELLE_ART":"Abzw","KUERZEL":"AAR","GK_R_DGN":3562476.197,"GK_H_DGN":5937247.046}},{"type":"Feature","geometry":{"type":"Point","coordinates":[9.92432208,53.58169625]},"properties":{"STRECKE_NR":1232,"RICHTUNG":0,"KM_I":100410049,"KM_L":"4,1 + 49","BEZEICHNUNG":"Hamburg-Langenfelde Bbf","STELLE_ART":"Bf","KUERZEL":"ALA","GK_R_DGN":3561294.07,"GK_H_DGN":5939314.399}},{"type":"Feature","geometry":{"type":"Point","coordinates":[9.92045611,53.58673709]},"properties":{"STRECKE_NR":1232,"RICHTUNG":0,"KM_I":100470065,"KM_L":"4,7 + 65","BEZEICHNUNG":"Hamburg-Langenfelde Abzw","STELLE_ART":"Bft Abzw","KUERZEL":"ALAA","GK_R_DGN":3561030.779,"GK_H_DGN":5939872.089}},{"type":"Feature","geometry":{"type":"Point","coordinates":[9.8817201,53.60827423]},"properties":{"STRECKE_NR":1232,"RICHTUNG":0,"KM_I":100830000,"KM_L":"8,3 + 0","BEZEICHNUNG":"Hamburg-Eidelstedt","STELLE_ART":"Bf","KUERZEL":"AE","GK_R_DGN":3558435.959,"GK_H_DGN":5942236.553}},{"type":"Feature","geometry":{"type":"Point","coordinates":[9.97264506,53.60283626]},"properties":{"STRECKE_NR":1234,"RICHTUNG":0,"KM_I":100590050,"KM_L":"5,9 + 50","BEZEICHNUNG":"Hamburg-Lokstedt","STELLE_ART":"Bf","KUERZEL":"ALOF","GK_R_DGN":3564462.275,"GK_H_DGN":5941709.752}},{"type":"Feature","geometry":{"type":"Point","coordinates":[10.03441971,53.60037735]},"properties":{"STRECKE_NR":1234,"RICHTUNG":0,"KM_I":101110000,"KM_L":"11,1 + 0","BEZEICHNUNG":"Hamburg-Barmbek","STELLE_ART":"Bf","KUERZEL":"ABAG","GK_R_DGN":3568555.426,"GK_H_DGN":5941493.753}},{"type":"Feature","geometry":{"type":"Point","coordinates":[10.06504919,53.56195027]},"properties":{"STRECKE_NR":1234,"RICHTUNG":0,"KM_I":101600097,"KM_L":"16,0 + 97","BEZEICHNUNG":"Hamburg-Horn","STELLE_ART":"Abzw","KUERZEL":"AHOR","GK_R_DGN":3570647.033,"GK_H_DGN":5937247.073}},{"type":"Feature","geometry":{"type":"Point","coordinates":[10.00664692,53.63271616]},"properties":{"STRECKE_NR":1239,"RICHTUNG":0,"KM_I":101420010,"KM_L":"14,2 + 10","BEZEICHNUNG":"Hamburg Airport","STELLE_ART":"Bf","KUERZEL":"AAI","GK_R_DGN":3566665.989,"GK_H_DGN":5945066.447}},{"type":"Feature","geometry":{"type":"Point","coordinates":[9.98966044,53.56093801]},"properties":{"STRECKE_NR":1240,"RICHTUNG":0,"KM_I":128810010,"KM_L":"288,1 + 10","BEZEICHNUNG":"Hamburg Dammtor (S-Bahn)","STELLE_ART":"Hp","KUERZEL":"ADST","GK_R_DGN":3565653.431,"GK_H_DGN":5937062.351}},{"type":"Feature","geometry":{"type":"Point","coordinates":[9.9657725,53.56382629]},"properties":{"STRECKE_NR":1240,"RICHTUNG":0,"KM_I":128980017,"KM_L":"289,8 + 17","BEZEICHNUNG":"Hamburg Sternschanze (S-Bahn)","STELLE_ART":"Bf","KUERZEL":"ASST","GK_R_DGN":3564066.241,"GK_H_DGN":5937362.06}},{"type":"Feature","geometry":{"type":"Point","coordinates":[9.9501266,53.56173037]},"properties":{"STRECKE_NR":1240,"RICHTUNG":0,"KM_I":129090030,"KM_L":"290,9 + 30","BEZEICHNUNG":"Hamburg Holstenstraáe","STELLE_ART":"Hp","KUERZEL":"AHST","GK_R_DGN":3563032.714,"GK_H_DGN":5937114.856}},{"type":"Feature","geometry":{"type":"Point","coordinates":[9.94808345,53.56219615]},"properties":{"STRECKE_NR":1240,"RICHTUNG":0,"KM_I":129100075,"KM_L":"291,0 + 75","BEZEICHNUNG":"Hamburg Holstenstraáe D","STELLE_ART":"Abzw","KUERZEL":"AHSO","GK_R_DGN":3562896.646,"GK_H_DGN":5937164.889}},{"type":"Feature","geometry":{"type":"Point","coordinates":[9.94089694,53.56314046]},"properties":{"STRECKE_NR":1240,"RICHTUNG":0,"KM_I":129150065,"KM_L":"291,5 + 65","BEZEICHNUNG":"Hamburg Holstenstraáe H","STELLE_ART":"Abzw","KUERZEL":"AHSH","GK_R_DGN":3562419.087,"GK_H_DGN":5937263.668}},{"type":"Feature","geometry":{"type":"Point","coordinates":[10.00802059,53.55289738]},"properties":{"STRECKE_NR":1241,"RICHTUNG":0,"KM_I":100010010,"KM_L":"0,1 + 10","BEZEICHNUNG":"Hamburg Hbf (S-Bahn)","STELLE_ART":"Bf","KUERZEL":"AHS","GK_R_DGN":3566882.651,"GK_H_DGN":5936184.565}},{"type":"Feature","geometry":{"type":"Point","coordinates":[10.02457591,53.55299884]},"properties":{"STRECKE_NR":1241,"RICHTUNG":0,"KM_I":100150030,"KM_L":"1,5 + 30","BEZEICHNUNG":"Hamburg Berliner Tor (Landwehr)","STELLE_ART":"Bft","KUERZEL":"ABTSL","GK_R_DGN":3567979.659,"GK_H_DGN":5936211.513}},{"type":"Feature","geometry":{"type":"Point","coordinates":[10.03706034,53.56085651]},"properties":{"STRECKE_NR":1241,"RICHTUNG":0,"KM_I":100270093,"KM_L":"2,7 + 93","BEZEICHNUNG":"Hamburg Landwehr","STELLE_ART":"Hp","KUERZEL":"ALAN","GK_R_DGN":3568794.302,"GK_H_DGN":5937097.975}},{"type":"Feature","geometry":{"type":"Point","coordinates":[10.05643778,53.5648617]},"properties":{"STRECKE_NR":1241,"RICHTUNG":0,"KM_I":100410070,"KM_L":"4,1 + 70","BEZEICHNUNG":"Hamburg Hasselbrook (S-Bahn)","STELLE_ART":"Bf","KUERZEL":"AHSB","GK_R_DGN":3570071.646,"GK_H_DGN":5937562.588}},{"type":"Feature","geometry":{"type":"Point","coordinates":[10.05973388,53.57012686]},"properties":{"STRECKE_NR":1241,"RICHTUNG":0,"KM_I":100490020,"KM_L":"4,9 + 20","BEZEICHNUNG":"Hamburg Wandsbeker Chaussee","STELLE_ART":"Hp","KUERZEL":"AWCH","GK_R_DGN":3570281.305,"GK_H_DGN":5938151.797}},{"type":"Feature","geometry":{"type":"Point","coordinates":[10.05738748,53.57619686]},"properties":{"STRECKE_NR":1241,"RICHTUNG":0,"KM_I":100560017,"KM_L":"5,6 + 17","BEZEICHNUNG":"Hamburg Friedrichsberg","STELLE_ART":"Hp","KUERZEL":"AFBG","GK_R_DGN":3570115.833,"GK_H_DGN":5938825.021}},{"type":"Feature","geometry":{"type":"Point","coordinates":[10.04579692,53.58724112]},"properties":{"STRECKE_NR":1241,"RICHTUNG":0,"KM_I":100700130,"KM_L":"7,0 + 130","BEZEICHNUNG":"Hamburg-Barmbek (S-Bahn)","STELLE_ART":"Bf","KUERZEL":"ABAP","GK_R_DGN":3569330.061,"GK_H_DGN":5940042.81}},{"type":"Feature","geometry":{"type":"Point","coordinates":[10.03544731,53.59764491]},"properties":{"STRECKE_NR":1241,"RICHTUNG":0,"KM_I":100860031,"KM_L":"8,6 + 31","BEZEICHNUNG":"Hamburg Alte W”hr","STELLE_ART":"Hp","KUERZEL":"AAW","GK_R_DGN":3568627.876,"GK_H_DGN":5941190.644}},{"type":"Feature","geometry":{"type":"Point","coordinates":[10.03282927,53.60678411]},"properties":{"STRECKE_NR":1241,"RICHTUNG":0,"KM_I":100960064,"KM_L":"9,6 + 64","BEZEICHNUNG":"Hamburg-R\x81benkamp","STELLE_ART":"Hp","KUERZEL":"ARP","GK_R_DGN":3568439.794,"GK_H_DGN":5942205.243}},{"type":"Feature","geometry":{"type":"Point","coordinates":[10.03171031,53.62107201]},"properties":{"STRECKE_NR":1241,"RICHTUNG":0,"KM_I":101120083,"KM_L":"11,2 + 83","BEZEICHNUNG":"Hamburg-Ohlsdorf (S-Bahn)","STELLE_ART":"Bf","KUERZEL":"AOPS","GK_R_DGN":3568342.678,"GK_H_DGN":5943794.295}},{"type":"Feature","geometry":{"type":"Point","coordinates":[10.05358311,53.63231716]},"properties":{"STRECKE_NR":1241,"RICHTUNG":0,"KM_I":101340006,"KM_L":"13,4 + 6","BEZEICHNUNG":"Hamburg Kornweg (Klein Borstel)","STELLE_ART":"Hp","KUERZEL":"AKWS","GK_R_DGN":3569771.387,"GK_H_DGN":5945066.996}},{"type":"Feature","geometry":{"type":"Point","coordinates":[10.06722171,53.6353838]},"properties":{"STRECKE_NR":1241,"RICHTUNG":0,"KM_I":101430071,"KM_L":"14,3 + 71","BEZEICHNUNG":"Hamburg Hoheneichen","STELLE_ART":"Hp","KUERZEL":"AHCH","GK_R_DGN":3570668.441,"GK_H_DGN":5945421.734}},{"type":"Feature","geometry":{"type":"Point","coordinates":[10.08328769,53.64159533]},"properties":{"STRECKE_NR":1241,"RICHTUNG":0,"KM_I":101560057,"KM_L":"15,6 + 57","BEZEICHNUNG":"Hamburg-Wellingsb\x81ttel","STELLE_ART":"Hp","KUERZEL":"AWBS","GK_R_DGN":3571720.577,"GK_H_DGN":5946129.088}},{"type":"Feature","geometry":{"type":"Point","coordinates":[10.09380677,53.65186911]},"properties":{"STRECKE_NR":1241,"RICHTUNG":0,"KM_I":101700022,"KM_L":"17,0 + 22","BEZEICHNUNG":"Hamburg-Poppenb\x81ttel","STELLE_ART":"Bf","KUERZEL":"APB","GK_R_DGN":3572398.662,"GK_H_DGN":5947283.12}},{"type":"Feature","geometry":{"type":"Point","coordinates":[10.07717987,53.56984627]},"properties":{"STRECKE_NR":1242,"RICHTUNG":0,"KM_I":105820000,"KM_L":"58,2 + 0","BEZEICHNUNG":"Hamburg-Wandsbek","STELLE_ART":"Bf","KUERZEL":"AWN","GK_R_DGN":3571437.5,"GK_H_DGN":5938137.912}},{"type":"Feature","geometry":{"type":"Point","coordinates":[10.06504919,53.56195027]},"properties":{"STRECKE_NR":1242,"RICHTUNG":0,"KM_I":105960038,"KM_L":"59,6 + 38","BEZEICHNUNG":"Hamburg-Horn","STELLE_ART":"Abzw","KUERZEL":"AHOR","GK_R_DGN":3570647.033,"GK_H_DGN":5937247.073}},{"type":"Feature","geometry":{"type":"Point","coordinates":[10.00782021,53.5528741]},"properties":{"STRECKE_NR":1244,"RICHTUNG":0,"KM_I":100010006,"KM_L":"0,1 + 6","BEZEICHNUNG":"Hamburg Hbf (S-Bahn)","STELLE_ART":"Bf","KUERZEL":"AHS","GK_R_DGN":3566869.408,"GK_H_DGN":5936181.786}},{"type":"Feature","geometry":{"type":"Point","coordinates":[10.02492677,53.55263346]},"properties":{"STRECKE_NR":1244,"RICHTUNG":0,"KM_I":100150028,"KM_L":"1,5 + 28","BEZEICHNUNG":"Hamburg Berliner Tor (Bergedorf)","STELLE_ART":"Bft","KUERZEL":"ABTSB","GK_R_DGN":3568003.497,"GK_H_DGN":5936171.184}},{"type":"Feature","geometry":{"type":"Point","coordinates":[10.0443793,53.53829617]},"properties":{"STRECKE_NR":1244,"RICHTUNG":0,"KM_I":100360089,"KM_L":"3,6 + 89","BEZEICHNUNG":"Hamburg-Rothenburgsort (S-Bahn)","STELLE_ART":"Hp","KUERZEL":"AROP","GK_R_DGN":3569316.077,"GK_H_DGN":5934594.309}},{"type":"Feature","geometry":{"type":"Point","coordinates":[10.0664072,53.53079888]},"properties":{"STRECKE_NR":1244,"RICHTUNG":0,"KM_I":100530082,"KM_L":"5,3 + 82","BEZEICHNUNG":"Hamburg-Tiefstack","STELLE_ART":"Hp","KUERZEL":"ATK","GK_R_DGN":3570788.92,"GK_H_DGN":5933781.572}},{"type":"Feature","geometry":{"type":"Point","coordinates":[10.09701921,53.5155272]},"properties":{"STRECKE_NR":1244,"RICHTUNG":0,"KM_I":100800031,"KM_L":"8,0 + 31","BEZEICHNUNG":"Hamburg-Billwerder-Moorfleet","STELLE_ART":"Hp","KUERZEL":"ABWM","GK_R_DGN":3572844.885,"GK_H_DGN":5932112.816}},{"type":"Feature","geometry":{"type":"Point","coordinates":[10.11311411,53.50731544]},"properties":{"STRECKE_NR":1244,"RICHTUNG":0,"KM_I":100940037,"KM_L":"9,4 + 37","BEZEICHNUNG":"Hamburg-Billwerder (šst)","STELLE_ART":"šst","KUERZEL":"ABS","GK_R_DGN":3573926.749,"GK_H_DGN":5931215.494}},{"type":"Feature","geometry":{"type":"Point","coordinates":[10.13055872,53.49833461]},"properties":{"STRECKE_NR":1244,"RICHTUNG":0,"KM_I":101090067,"KM_L":"10,9 + 67","BEZEICHNUNG":"Hamburg Mittlerer Landweg","STELLE_ART":"Hp","KUERZEL":"AML","GK_R_DGN":3575099.943,"GK_H_DGN":5930234.248}},{"type":"Feature","geometry":{"type":"Point","coordinates":[10.15859384,53.49036857]},"properties":{"STRECKE_NR":1244,"RICHTUNG":0,"KM_I":101300064,"KM_L":"13,0 + 64","BEZEICHNUNG":"Hamburg-Allerm”he (S-Bahn)","STELLE_ART":"Hp","KUERZEL":"AALH","GK_R_DGN":3576974.693,"GK_H_DGN":5929377.599}},{"type":"Feature","geometry":{"type":"Point","coordinates":[10.18120666,53.4879227]},"properties":{"STRECKE_NR":1244,"RICHTUNG":0,"KM_I":101450090,"KM_L":"14,5 + 90","BEZEICHNUNG":"Hamburg-Nettelnburg","STELLE_ART":"Hp","KUERZEL":"ANTB","GK_R_DGN":3578480.01,"GK_H_DGN":5929130.038}},{"type":"Feature","geometry":{"type":"Point","coordinates":[10.20617378,53.4898693]},"properties":{"STRECKE_NR":1244,"RICHTUNG":0,"KM_I":101630045,"KM_L":"16,3 + 45","BEZEICHNUNG":"Hamburg-Bergedorf","STELLE_ART":"Bf","KUERZEL":"ABG","GK_R_DGN":3580133.496,"GK_H_DGN":5929374.423}},{"type":"Feature","geometry":{"type":"Point","coordinates":[10.25190725,53.5080305]},"properties":{"STRECKE_NR":1244,"RICHTUNG":0,"KM_I":102000090,"KM_L":"20,0 + 90","BEZEICHNUNG":"Reinbek","STELLE_ART":"Hp","KUERZEL":"ARBK","GK_R_DGN":3583133.324,"GK_H_DGN":5931447.876}},{"type":"Feature","geometry":{"type":"Point","coordinates":[10.27803785,53.52067991]},"properties":{"STRECKE_NR":1244,"RICHTUNG":0,"KM_I":102240007,"KM_L":"22,4 + 7","BEZEICHNUNG":"Wohltorf","STELLE_ART":"Bf","KUERZEL":"AWLF","GK_R_DGN":3584841.614,"GK_H_DGN":5932886.369}},{"type":"Feature","geometry":{"type":"Point","coordinates":[10.31461282,53.53004764]},"properties":{"STRECKE_NR":1244,"RICHTUNG":0,"KM_I":102500093,"KM_L":"25,0 + 93","BEZEICHNUNG":"Aum\x81hle","STELLE_ART":"Bf","KUERZEL":"AAH","GK_R_DGN":3587248.081,"GK_H_DGN":5933973.013}},{"type":"Feature","geometry":{"type":"Point","coordinates":[10.00612257,53.55352798]},"properties":{"STRECKE_NR":1245,"RICHTUNG":0,"KM_I":100270034,"KM_L":"2,7 + 34","BEZEICHNUNG":"Hamburg Hbf","STELLE_ART":"Bf","KUERZEL":"AH","GK_R_DGN":3566755.872,"GK_H_DGN":5936252.966}},{"type":"Feature","geometry":{"type":"Point","coordinates":[10.01615069,53.52615777]},"properties":{"STRECKE_NR":1248,"RICHTUNG":0,"KM_I":103060046,"KM_L":"30,6 + 46","BEZEICHNUNG":"Hamburg-Veddel DB-Grenze","STELLE_ART":"Gp","KUERZEL":"AVLG","GK_R_DGN":3567463.91,"GK_H_DGN":5933216.352}},{"type":"Feature","geometry":{"type":"Point","coordinates":[10.01644351,53.5264122]},"properties":{"STRECKE_NR":1248,"RICHTUNG":0,"KM_I":103060080,"KM_L":"30,6 + 80","BEZEICHNUNG":"Hamburg-Veddel","STELLE_ART":"Abzw","KUERZEL":"AVL","GK_R_DGN":3567482.924,"GK_H_DGN":5933244.945}},{"type":"Feature","geometry":{"type":"Point","coordinates":[10.02449951,53.53497329]},"properties":{"STRECKE_NR":1250,"RICHTUNG":0,"KM_I":135240056,"KM_L":"352,4 + 56","BEZEICHNUNG":"Hamburg Oberhafen","STELLE_ART":"Abzw","KUERZEL":"AOHA","GK_R_DGN":3568003.451,"GK_H_DGN":5934205.365}},{"type":"Feature","geometry":{"type":"Point","coordinates":[10.00881225,53.54143547]},"properties":{"STRECKE_NR":1250,"RICHTUNG":0,"KM_I":135390021,"KM_L":"353,9 + 21","BEZEICHNUNG":"Hamburg Ericus","STELLE_ART":"Abzw","KUERZEL":"AERI","GK_R_DGN":3566953.184,"GK_H_DGN":5934909.701}},{"type":"Feature","geometry":{"type":"Point","coordinates":[10.00598411,53.55350309]},"properties":{"STRECKE_NR":1250,"RICHTUNG":0,"KM_I":135530028,"KM_L":"355,3 + 28","BEZEICHNUNG":"Hamburg Hbf","STELLE_ART":"Bf","KUERZEL":"AH","GK_R_DGN":3566746.735,"GK_H_DGN":5936250.066}},{"type":"Feature","geometry":{"type":"Point","coordinates":[9.97794948,53.46532427]},"properties":{"STRECKE_NR":1252,"RICHTUNG":0,"KM_I":100000000,"KM_L":"0,0 + 0","BEZEICHNUNG":"Hamburg Unterelbe","STELLE_ART":"Bf","KUERZEL":"AHB","GK_R_DGN":3565023.497,"GK_H_DGN":5926410.722}},{"type":"Feature","geometry":{"type":"Point","coordinates":[9.96091196,53.47229507]},"properties":{"STRECKE_NR":1252,"RICHTUNG":0,"KM_I":100140028,"KM_L":"1,4 + 28","BEZEICHNUNG":"Hamburg Unterelbe Seehafen","STELLE_ART":"Bft","KUERZEL":"AHO","GK_R_DGN":3563881.578,"GK_H_DGN":5927171.118}},{"type":"Feature","geometry":{"type":"Point","coordinates":[10.00119017,53.47944986]},"properties":{"STRECKE_NR":1253,"RICHTUNG":0,"KM_I":100050024,"KM_L":"0,5 + 24","BEZEICHNUNG":"Hamburg S\x81derelbbr\x81cke","STELLE_ART":"Bft Abzw","KUERZEL":"ASE","GK_R_DGN":3566544.833,"GK_H_DGN":5928004.175}},{"type":"Feature","geometry":{"type":"Point","coordinates":[9.99856223,53.48262568]},"properties":{"STRECKE_NR":1253,"RICHTUNG":0,"KM_I":100090093,"KM_L":"0,9 + 93","BEZEICHNUNG":"Hamburg S\x81derelbbr\x81cke DB-Grenze","STELLE_ART":"Gp","KUERZEL":"ASEG","GK_R_DGN":3566365.419,"GK_H_DGN":5928355.164}},{"type":"Feature","geometry":{"type":"Point","coordinates":[9.99855603,53.48266065]},"properties":{"STRECKE_NR":1254,"RICHTUNG":0,"KM_I":100090093,"KM_L":"0,9 + 93","BEZEICHNUNG":"Hamburg-Wilhelmsburg DB-Grenze","STELLE_ART":"Gp","KUERZEL":"AWLG","GK_R_DGN":3566364.953,"GK_H_DGN":5928359.05}},{"type":"Feature","geometry":{"type":"Point","coordinates":[10.03339161,53.42146818]},